code_dot,code_iata,city_name,airport_name,latitude,longitude
10001.0,01A,"Afognak Lake, AK",Afognak Lake Airport,58.10944444,-152.90666667
10003.0,03A,"Granite Mountain, AK",Bear Creek Mining Strip,65.54805556,-161.07166667
10004.0,04A,"Lik, AK",Lik Mining Camp,68.08333333,-163.16666667
10005.0,05A,"Little Squaw, AK",Little Squaw Airport,67.57,-148.18388889
10006.0,06A,"Kizhuyak, AK",Kizhuyak Bay,57.74527778,-152.88277778
10007.0,07A,"Klawock, AK",Klawock Seaplane Base,55.55472222,-133.10166667
10008.0,08A,"Elizabeth Island, AK",Elizabeth Island Airport,59.15694444,-151.82916667
10009.0,09A,"Homer, AK",Augustin Island,59.36277778,-153.43055556
16923.0,1AK,"Mertarvik, AK",Mertarvik Quarry Road Landing Strip,60.81833333,-164.51888889
10010.0,1B1,"Hudson, NY",Columbia County,42.28888889,-73.71027778
10010.0,1B1,"Hudson, NY",Columbia County,42.29138889,-73.71027778
16843.0,1CA,"Rio Vista, CA",Rio Vista Municipal,38.19333333,-121.70361111
13750.0,1FL,"Titusville, FL",Space Florida Launch Landing Facility,28.615,-80.69444444
13750.0,1FL,"Titusville, FL",Space Florida Launch Landing Facility,28.61472222,-80.69472222
10011.0,1G4,"Peach Springs, AZ",Grand Canyon West,35.98611111,-113.81694444
10011.0,1G4,"Peach Springs, AZ",Grand Canyon West,35.99027778,-113.81638889
10011.0,DQR,"Peach Springs, AZ",Grand Canyon West,35.98611111,-113.81694444
10011.0,DQR,"Peach Springs, AZ",Grand Canyon West,35.99027778,-113.81638889
11398.0,1G4,"Peach Springs, AZ",Grand Canyon West,35.98611111,-113.81694444
11398.0,1G4,"Peach Springs, AZ",Grand Canyon West,35.98861111,-113.81
11398.0,1G4,"Peach Springs, AZ",Grand Canyon West,35.99027778,-113.81638889
11398.0,DQR,"Peach Springs, AZ",Grand Canyon West,35.98611111,-113.81694444
11398.0,DQR,"Peach Springs, AZ",Grand Canyon West,35.98861111,-113.81
11398.0,DQR,"Peach Springs, AZ",Grand Canyon West,35.99027778,-113.81638889
16842.0,1GA,"Hampton, GA",Atlanta Speedway,33.39,-84.33111111
10012.0,1N7,"Blairstown, NJ",Blairstown Airport,40.97111111,-74.9975
14668.0,1NC,"Roanoke Rapids, NC",Halifax Northampton Regional,36.43944444,-77.70944444
16990.0,1NJ,"Andover, NJ",Aeroflex Andover,41.0086111,-74.73805556
16571.0,1NY,"Penn Yan, NY",Penn Yan Airport,42.63694444,-77.05277778
16571.0,1NY,"Penn Yan, NY",Penn Yan Airport,42.63722222,-77.05277778
16935.0,1OH,"Willoughby, OH",Lake County Executive,41.68416667,-81.38972222
16959.0,1PA,"Connellsville, PA",Joseph A Hardy Connellsville,39.95916667,-79.6575
16840.0,1TN,"Lexington Parsons, TN",Beech River Regional,35.65638889,-88.19527778
16853.0,1TX,"Dumas, TX",Moore County,35.8575,-102.01333333
16951.0,1VA,"Warrenton, VA",Warrenton Fauquier,38.58638889,-77.71055556
16908.0,1WA,"Deer Park, WA",Deer Park Airport,47.96694444,-117.42861111
16982.0,2AK,"Deerpark, AK",Deer Park,56.51972222,-134.67944444
16844.0,2CA,"Delano, CA",Delano Municipal,35.74555556,-119.23638889
16901.0,2FL,"West Palm Beach, FL",North Palm Beach County Gen Aviation,26.84583333,-80.22222222
16848.0,2GA,"Camilla, GA",Camilla Mitchell County,31.21305556,-84.23527778
16934.0,2NC,"Asheboro, NC",Asheboro Regional,35.65444444,-79.89472222
17008.0,2NJ,"Williamstown, NJ",Southern Cross,39.65555556,-75.01444444
16830.0,2NY,"Port Washington, NY",Sands Point Seaplane Base,40.8275,-73.71694444
16898.0,2TN,"Dayton, TN",Mark Anton,35.48611111,-84.93111111
16897.0,2TX,"Brenham, TX",Brenham Municipal,30.21972222,-96.37444444
16980.0,2VA,"Williamsburg, VA",Camp Peary Landing Strip,37.31277777,-76.63833333
16983.0,2WK,"Odessa, WA",Odessa Municipal,47.3475,-118.67722222
16992.0,3AK,"Tintina, AK",Gold Mining Landing Strip,64.40972222,-155.49111111
16907.0,3CA,"Garberville, CA",Garberville Airport,40.08555556,-123.81416667
16875.0,3GA,"Blakely, GA",Early County,31.3975,-84.89472222
16991.0,3NC,"Hendersonville, NC",Hendersonville Airport,35.30749999,-82.43305556
16831.0,3NY,"Suffolk, NY",Sebonac,40.89861111,-72.41055556
16940.0,3TN,"Elizabethon, TN",Elizabethton Municipal,36.37166667,-82.17277778
16880.0,3TX,"Lancaster, TX",Lancaster Regional,32.5775,-96.7175
16994.0,4AK,"North Pole, AK",Bradley Sky Ranch,64.75916667,-147.38777778
16920.0,4CA,"Davis, CA",University,38.53138889,-121.78638889
16914.0,4CL,"El Mirage, CA",El Mirage Field Adelanto,34.625,-117.605
16914.0,4CL,"El Mirage, CA",El Mirage Field Adelanto,34.62555556,-117.59833333
16913.0,4GA,"Atlanta, GA",Paulding Memorial Hospital Heliport,33.91972221,-84.85277778
16904.0,4NY,"Millbrook, NY",Johnson Landing Strip,41.81916667,-73.64333333
16900.0,4TX,"Lajitas, TX",Lajitas International,29.27722222,-103.68583333
16995.0,5AK,"Lawing, AK",Lawing Airport,60.41194444,-149.36944444
17002.0,5GA,"Calhoun, GA",Tom B David Field,34.45527778,-84.93916667
16925.0,5NY,"Malone, NY",Malone Dufort,44.85361111,-74.32888889
16909.0,5TX,"Edinburg, TX",South Texas International at Edinburg,26.44166667,-98.12222222
16429.0,6B0,"Middlebury, VT",Middlebury State,43.98472222,-73.09583333
16429.0,6B0,"Middlebury, VT",Middlebury State,43.98555556,-73.09555556
16429.0,6B0,"Middlebury, VT",Middlebury State,43.98638889,-73.09555556
17007.0,6GA,"Cornelia, GA",Habersham County,34.49972222,-83.55666667
16955.0,6NY,"New York, NY",Sag Harbor,41.00888889,-72.27527778
16916.0,6TX,"Leakey, TX",Real County,29.74555556,-99.76083333
16567.0,7AK,"Akun, AK",Akun Airport,54.14472222,-165.60416667
16956.0,7NY,"New York, NY",Shelter Island,41.07916667,-72.33916667
16919.0,7TX,"Graford, TX",Possum Kingdom,32.92333333,-98.43694444
10013.0,8F3,"Crosbyton, TX",Crosbyton Municipal,33.62388889,-101.24083333
16957.0,8NY,"New York, NY",Noyack,41.0161111,-72.33916667
16926.0,8TX,"Waco, TX",McGregor Exec,31.485,-97.31666667
16965.0,9NY,"Shelter Island, NY",Sbnysh,41.09277778,-72.31583333
16942.0,9TX,"Center, TX",Center Municipal,31.83166667,-94.15638889
10014.0,A01,"Fairbanks/Ft. Wainwright, AK",Blair Lake,64.36361111,-147.36388889
10014.0,A01,"Fairbanks/Ft. Wainwright, AK",Blair Lake,64.36416667,-147.36138889
10015.0,A02,"Deadmans Bay, AK",Deadmans Bay Airport,57.06666667,-153.93777778
10016.0,A03,"Hallo Bay, AK",Hallo Bay Airport,58.4575,-154.02333333
10017.0,A04,"Red Lake, AK",Red Lake Airport,57.27722222,-154.34222222
10018.0,A05,"Shell Lake, AK",Shell Lake Airport,61.96388889,-151.55583333
10019.0,A06,"Kougarok, AK",Navigator Airstrip,65.65555556,-165.35638889
10020.0,A07,"Selawik, AK",Roland Norton Memorial,66.76611111,-160.15277778
10020.0,A07,"Selawik, AK",Roland Norton Memorial,66.76583333,-160.1525
10021.0,A08,"Pillar Bay, AK",Pillar Bay Airport,56.59805556,-134.24277778
10022.0,A09,"Johnstone Point, AK",Johnstone Point Airport,60.48166667,-146.58416667
10022.0,A09,"Johnstone Point, AK",Johnstone Point Airport,60.48222222,-146.58222222
10022.0,A09,"Johnstone Point, AK",Johnstone Point Airport,60.48138889,-146.58222222
10024.0,A11,"Bell Creek, AK",Bell Creek Airport,60.78388889,-159.54027778
10025.0,A12,"Cinnabar, AK",Cinnabar Airport,60.78527778,-158.86444444
10026.0,A13,"Mountaintop Mine, AK",Mountaintop Mine Airport,61.39027778,-157.99555556
10027.0,A14,"Whitebear, AK",Whitebear Airport,61.18888889,-159.85833333
10028.0,A15,"Puviaq, AK",Puviaq Airport,70.71555556,-154.40694444
10028.0,A15,"Puviaq, AK",Puviaq Airport,70.71861111,-154.38833333
10029.0,A16,"Arley Lake, AK",Arley Lake Airport,70.74694444,-155.36083333
10030.0,A17,"Port Vita, AK",Port Vita Airport,58.06555556,-153.0725
10031.0,A18,"Kantishna, AK",Kantishna Airport,63.54111111,-150.995
10031.0,A18,"Kantishna, AK",Kantishna Airport,63.54166667,-150.99388889
16668.0,A1K,"Deadhorse1, AK",Point Thomson Airstrip,70.13611111,-146.29
16811.0,A1L,"Cullman, AL",Cullman Regional Folsom Field,34.26861111,-86.85805556
10033.0,A20,"Alpine, AK",Alpine Airstrip,70.34416667,-150.94472222
10033.0,DQH,"Alpine, AK",Alpine Airstrip,70.34416667,-150.94472222
11388.0,A20,"Alpine, AK",Alpine Airstrip,70.34833333,-150.93166667
11388.0,A20,"Alpine, AK",Alpine Airstrip,70.34416667,-150.94472222
11388.0,DQH,"Alpine, AK",Alpine Airstrip,70.34833333,-150.93166667
11388.0,DQH,"Alpine, AK",Alpine Airstrip,70.34416667,-150.94472222
10034.0,A21,"Serpentine, AK",Serpentine Airport,65.85138889,-164.70277778
10035.0,A22,"Driftwood Bay, AK",Driftwood Bay Airport,53.97277778,-166.85694444
10036.0,A23,"Bradley Lake, AK",Bradley Lake Airport,59.77611111,-151.96361111
10037.0,A24,"Chilkat Lake, AK",Chilkat Lake Airport,59.33166667,-135.89666667
10038.0,A25,"Nugget Creek, AK",Nugget Creek Airport,59.28833333,-136.17388889
10039.0,A26,"Ivotuk, AK",Ivotuk Airstrip,68.48333333,-155.73333333
10040.0,A27,"Pogo Mines, AK",Pogo Mines Airport,64.44,-144.93638889
10041.0,A28,"Ayakulik River, AK",Ayakulik River Airport,57.25388889,-154.42222222
10042.0,A29,"Kiluda Bay, AK",Kiluda Bay Airport,57.32305556,-153.14944444
10770.0,A2K,"Bartletts, AK",Bartletts Airport,58.23305556,-157.36638889
10770.0,A2K,"Bartletts, AK",Bartletts Airport,58.21611111,-157.3525
10770.0,A2K,"Bartletts, AK",Bartletts Airport,58.23361111,-157.35027778
10770.0,BSZ,"Bartletts, AK",Bartletts Airport,58.23305556,-157.36638889
10770.0,BSZ,"Bartletts, AK",Bartletts Airport,58.21611111,-157.3525
10770.0,BSZ,"Bartletts, AK",Bartletts Airport,58.23361111,-157.35027778
16810.0,A2L,"Fort Payne, AL",Isbell Field,34.47361111,-85.72138889
10043.0,A30,"Terror Lake, AK",Terror Lake Airport,57.96388889,-153.05833333
10044.0,A31,"Selief Bay, AK",Selief Bay Airport,58.98277778,-153.18333333
10047.0,A34,"Laura Lake, AK",Laura Lake Airport,58.36194444,-152.31222222
11828.0,A35,"Kaktovik, AK",Bullen Point AFS,70.17277778,-146.83611111
11828.0,A35,"Kaktovik, AK",Bullen Point AFS,70.17305556,-146.85555556
10049.0,A36,"Deep Bay, AK",Deep Bay Airport,55.56027778,-131.65555556
10050.0,A37,"Kako, AK",Kako Airport,61.89888889,-161.43805556
10050.0,A37,"Kako, AK",Kako Airport,61.89888889,-161.43972222
10051.0,A38,"Molly Creek, AK",Molly Creek Airport,64.09722222,-143.26666667
10052.0,A39,"Ptarmigan Lake, AK",Ptarmigan Lake Airport,61.86611111,-141.15972222
16696.0,A3K,"Smith Bay, AK",Smith Bay Airport,70.76583333,-154.23083333
10053.0,A40,"Cape Simpson, AK",Cape Simpson Airport,71.05694444,-154.72833333
10054.0,A41,"Kogru River, AK",Kogru River Airport,70.57472222,-152.25888889
10054.0,A41,"Kogru River, AK",Kogru River Airport,70.57611111,-152.27111111
10055.0,A42,"Teshepkuk Lake, AK",Teshepkuk Lake Airport,70.35833333,-153.19666667
10056.0,A43,"Kodiak Island, AK",Trident Basin Seaplane Base,57.78083333,-152.39111111
10058.0,A45,"Lake Florence, AK",Lake Florence Airport,57.81666667,-134.58333333
10059.0,A46,"Lake Hasselborg, AK",Lake Hasselborg Airport,57.7,-134.26666667
10060.0,A47,"Distin Lake, AK",Distin Lake Airport,57.61666667,-134.36666667
10061.0,A48,"Port Hobron, AK",Port Hobron Airport,57.15,-153.15
10062.0,A49,"Mooseville Airstrip, AK",Mooseville Airstrip Airport,70.28444444,-152.21194444
16698.0,A4K,"Dune Lake, AK",Dune Lake Airport,64.42138889,-149.89444444
10063.0,A50,"Big Bay, AK",Big Bay Airport,58.5625,-152.59611111
10064.0,A51,"Wien Lake, AK",Wien Lake Airport,64.35277778,-151.275
10065.0,A52,"Silver Salmon Creek, AK",Silver Salmon Creek Airport,59.96388889,-152.68222222
10066.0,A53,"Blear Lake, AK",Blear Lake Airport,64.33333333,-147.5
10067.0,A54,"Cannery Bay, AK",Cannery Bay Airport,53.68333333,-166.75
10069.0,A56,"Bear Lake, AK",Johnsons Landing,56.03666667,-160.26611111
10070.0,A57,"International Seafoods, AK",International Seafoods Airport,58.26666667,-157.53333333
10070.0,VZK,"International Seafoods, AK",International Seafoods Airport,58.26666667,-157.53333333
10071.0,A58,"Cosna River, AK",Cosna River Airport,64.5,-151.66666667
10072.0,A59,"Ivatuk, AK",Ivatuk Airport,68.48777778,-155.7575
16803.0,A5K,"Paxson, AK",Paxson Airport,63.02444444,-145.50055556
10074.0,A61,"Cape Sarichef, AK",Cape Sarichef Airport,54.58333333,-164.9125
10074.0,A61,"Cape Sarichef, AK",Cape Sarichef Airport,54.5825,-164.91444444
10075.0,A62,"Taylor Mountain Mine, AK",Taylor Mountain,60.86777778,-157.39194444
10076.0,A63,"Yukon Charley Rivvers, AK",Coal Creek,65.31111111,-143.13527778
10076.0,A63,"Yukon Charley Rivvers, AK",Coal Creek,65.31138889,-143.13555556
10076.0,A63,"Yukon Charley Rivvers, AK",Coal Creek,65.31166667,-143.13416667
10078.0,A65,"Karluk Portage, AK",Karluk Portage Airport,57.53833333,-154.16444444
10079.0,A66,"Hope, AK",Hope Airport,60.90416667,-149.62388889
10079.0,A66,"Hope, AK",Hope Airport,60.90555556,-149.62388889
10079.0,A66,"Hope, AK",Hope Airport,60.90722222,-149.62277778
10080.0,A67,"Viekoda Bay, AK",Viekoda Bay Airport,57.84944444,-153.11527778
10082.0,A69,"Cold Bay, AK",Cathedral Strip,55.74,-162.12527778
16720.0,A6K,"Fairbanks1, AK",Van Curlers Sandbar,65.04472222,-145.42305556
10083.0,A70,"Village Islands, AK",Village Islands Airport,57.77416667,-153.54472222
10084.0,A71,"Homer, AK",Bear Cove Farm,59.73833333,-151.03
10085.0,A72,"Chinitna Bay, AK",Chinitna Bay Airport,59.83333333,-152.58472222
10086.0,A73,"McKinley Park, AK",McKinley National Park,63.7325,-148.91055556
10087.0,A74,"Nanwalek, AK",Dog Fish Bay,59.24111111,-151.87722222
10088.0,A75,"Malina Bay, AK",Malina Bay Airport,58.17194444,-152.89416667
10089.0,A76,"Red Fox Bay, AK",Red Fox Bay Airport,58.46444444,-152.59305556
10090.0,A77,"Shearwater, AK",Shearwater Airport,57.34333333,-152.89722222
10091.0,A78,"Cape Simpson, AK",Lake,71.03,-154.44361111
10092.0,A79,"Cape Simpson, AK",Cape Simpson No. 1,71.50166667,-154.03388889
16723.0,A7K,"Nakochna, AK",Nakochna Airport,62.03611111,-151.45222222
10093.0,A80,"Cape Simpson, AK",Cape Simpson No. 7,70.57388889,-155.32138889
10094.0,A81,"Aglaq, AK",Cape Simpson #1,70.66277778,-154.83666667
10095.0,A82,"Nikiski, AK",Nikiski Private Airstrip,60.69027778,-151.28888889
10096.0,A83,"Petrof Point, AK",Petrof Point Airport,59.37638889,-150.765
10097.0,A84,"Denali, AK",Denali West Lodge Private,63.75555556,-147.93
10098.0,A85,"Big River, AK",Big River Airport,61.85944444,-154.27666667
10100.0,A87,"Carry Inlet, AK",Carry Inlet Airport,58.58305556,-152.44583333
10102.0,A89,"Montague Island, AK",Montague Island Airport,59.925,-147.51666667
15934.0,A8K,"Granite Point, AK",Granite Point Ndb,60.96166667,-151.33166667
10103.0,A90,"Shannon Pond, AK",Shannon Pond Airport,59.03916667,-158.46388889
10104.0,A91,"Omalik Lagoon, AK",Omalik Lagoon Airport,69.15555556,-163.49722222
10105.0,A92,"Omolik Lagoon, AK",Omolik Lagoon Airport,69.14805556,-163.51027778
10106.0,A93,"Bradley Lake Project, AK",Bradley Lake Project Airport,59.79166667,-151.26666667
10107.0,A94,"Barrow, AK",Ice Strip,70.57416667,-155.31805556
10107.0,A95,"Barrow, AK",Ice Strip,70.57416667,-155.31805556
10107.0,A96,"Barrow, AK",Ice Strip,70.57416667,-155.31805556
10108.0,A94,"Barrow, AK",Ice Strip,70.31194444,-153.24916667
10108.0,A95,"Barrow, AK",Ice Strip,70.31194444,-153.24916667
10108.0,A96,"Barrow, AK",Ice Strip,70.31194444,-153.24916667
10109.0,A94,"Barrow, AK",Ice Strip,70.98083333,-157.095
10109.0,A95,"Barrow, AK",Ice Strip,70.98083333,-157.095
10109.0,A96,"Barrow, AK",Ice Strip,70.98083333,-157.095
10110.0,A97,"Akulik, AK",Akulik Air Strip,68.98555556,-163.47972222
10111.0,A98,"Deadfall, AK",Deadfall Air Strip,69.17083333,-163.25638889
10112.0,A99,"Eagle Creek, AK",Eagle Creek Airport,68.67666667,-162.64694444
16985.0,A9K,"Healy, AK",Era Denali Heliport,63.73833333,-148.88166667
10113.0,AA1,"Bethel, AK",Ice Kong,59.95277778,-162.61694444
16662.0,AA2,"Naknek-1, AK",Icicle Seafoods,58.70944444,-157.07138889
10116.0,AA4,"Kachemak Bay, AK",Glacier Split,59.63333333,-151.20833333
10117.0,AA5,"Selby Lake, AK",Selby Lake Airport,66.95583333,-155.615
16472.0,AA7,"Independence Creek, AK",Independence Creek Airport,65.67361111,-162.46416667
11381.0,AA8,"Deadhorse, AK",Badami,70.1375,-147.03055556
16804.0,AA9,"Napaimute, AK",Napaimute Pioneer Airfield,61.53638889,-158.73888889
10118.0,AAA,"Anaa, French Polynesia",Anaa Airport,-17.3525,-145.51
10118.0,AAA,"Anaa, French Polynesia",Anaa Airport,-17.35388889,-145.50972222
10119.0,AAB,"Arrabury, Australia",Arrabury Station,-26.7,141.04166667
10120.0,AAC,"El Arish, Egypt",El Arish International,31.05444444,33.81916667
10120.0,AAC,"El Arish, Egypt",El Arish International,31.05555556,33.8275
10120.0,AAC,"El Arish, Egypt",El Arish International,31.07333333,33.83583333
10120.0,AAC,"El Arish, Egypt",El Arish International,31.07638889,33.83333333
16385.0,AAD,"Ad-Dabbah, Sudan",Ad-Dabbah Airport,18.05,30.93361111
10121.0,AAE,"Annaba, Algeria",Rabah Bitat,36.82166667,7.81
10121.0,AAE,"Annaba, Algeria",Rabah Bitat,36.82222222,7.80944444
10121.0,AAE,"Annaba, Algeria",Rabah Bitat,36.82944444,7.81388889
10122.0,AAF,"Apalachicola, FL",Apalachicola Regional Cleve Randolph Field,29.7275,-85.0275
10123.0,AAH,"Aachen, Germany",Aachen Merzbrueck,50.82305556,6.1875
10123.0,AAH,"Aachen, Germany",Aachen Merzbrueck,50.82166667,6.18416667
10123.0,AAH,"Aachen, Germany",Aachen Merzbrueck,50.82305556,6.18611111
10124.0,AAI,"Arraias, Brazil",Arraias Airport,-12.91666667,-46.93333333
10124.0,AAI,"Arraias, Brazil",Arraias Airport,-13.025,-46.88416667
10124.0,AAI,"Arraias, Brazil",Arraias Airport,-13.02583333,-46.88361111
10125.0,AAL,"Aalborg, Denmark",Aalborg Airport,57.09277778,9.84916667
10125.0,AAL,"Aalborg, Denmark",Aalborg Airport,57.09305556,9.85
10125.0,AAL,"Aalborg, Denmark",Aalborg Airport,57.09416667,9.85583333
10126.0,AAM,"Mala Mala, South Africa",Malamala,-24.80833333,31.54166667
10126.0,AAM,"Mala Mala, South Africa",Malamala,-24.81694444,31.54416667
10127.0,AAN,"Al Ain, United Arab Emirates",Al Ain International,24.26166667,55.60916667
10127.0,AAN,"Al Ain, United Arab Emirates",Al Ain International,24.26194444,55.6075
10128.0,AAO,"Anaco, Venezuela",Anaco Airport,9.43,-64.47083333
10128.0,AAO,"Anaco, Venezuela",Anaco Airport,9.43027778,-64.47083333
10128.0,AAO,"Anaco, Venezuela",Anaco Airport,9.43194444,-64.46388889
10129.0,AAQ,"Anapa, Russia",Vityazevo,45.00222222,37.34722222
10129.0,AAQ,"Anapa, Russia",Vityazevo,44.9,37.31666667
10130.0,AAR,"Aarhus, Denmark",Aarhus Airport,56.3,10.61888889
10130.0,AAR,"Aarhus, Denmark",Aarhus Airport,56.30416667,10.61944444
10130.0,AAR,"Aarhus, Denmark",Aarhus Airport,56.30388889,10.62
10130.0,AAR,"Aarhus, Denmark",Aarhus Airport,56.31027778,10.61805556
10131.0,AAU,"Asau, Samoa",Asau W Sam,-13.51666667,-172.65
10132.0,AAX,"Araxa, Brazil",Romeu Zema,-19.56333333,-46.96027778
10132.0,AAX,"Araxa, Brazil",Romeu Zema,-19.56805556,-46.92916667
16387.0,ABA,"Abakan, Russia",Abakan Airport,53.74,91.385
16387.0,ABA,"Abakan, Russia",Abakan Airport,53.74,91.38527778
10134.0,ABD,"Abadan, Iran",Abadan Airport,30.36527778,48.23305556
10134.0,ABD,"Abadan, Iran",Abadan Airport,30.36611111,48.23222222
10135.0,ABE,"Allentown/Bethlehem/Easton, PA",Lehigh Valley International,40.65222222,-75.44027778
10135.0,ABE,"Allentown/Bethlehem/Easton, PA",Lehigh Valley International,40.65222222,-75.44055556
10135.0,ABE,"Allentown/Bethlehem/Easton, PA",Lehigh Valley International,40.6525,-75.44027778
10135.0,ABE,"Allentown/Bethlehem/Easton, PA",Lehigh Valley International,40.65472222,-75.43833333
10136.0,ABI,"Abilene, TX",Abilene Regional,32.40944444,-99.67972222
10136.0,ABI,"Abilene, TX",Abilene Regional,32.41111111,-99.68166667
10136.0,ABI,"Abilene, TX",Abilene Regional,32.41138889,-99.68194444
10137.0,ABJ,"Abidjan, Cote d'Ivoire",Felix Houphouet Boigny Abidjan International,5.25555556,-3.92916667
10137.0,ABJ,"Abidjan, Cote d'Ivoire",Felix Houphouet Boigny Abidjan International,5.26138889,-3.92583333
10138.0,ABK,"Kabri Dar, Ethiopia",Kebri Dahar,6.73388889,44.26611111
10138.0,ABK,"Kabri Dar, Ethiopia",Kebri Dahar,6.73277778,44.24138889
10138.0,ABK,"Kabri Dar, Ethiopia",Kebri Dahar,6.73277778,44.24166667
10139.0,ABL,"Ambler, AK",Ambler River,67.0875,-157.84583333
10140.0,ABQ,"Albuquerque, NM",Albuquerque International Sunport,35.03888889,-106.60833333
10140.0,ABQ,"Albuquerque, NM",Albuquerque International Sunport,35.04027778,-106.60916667
10140.0,ABQ,"Albuquerque, NM",Albuquerque International Sunport,35.04166667,-106.60638889
10141.0,ABR,"Aberdeen, SD",Aberdeen Regional,45.44666667,-98.4225
10141.0,ABR,"Aberdeen, SD",Aberdeen Regional,45.44833333,-98.4225
10141.0,ABR,"Aberdeen, SD",Aberdeen Regional,45.44916667,-98.42194444
10141.0,ABR,"Aberdeen, SD",Aberdeen Regional,45.44972222,-98.42166667
10142.0,ABS,"Abu Simbel, Egypt",Abu Simbel Airport,22.37222222,31.61527778
10142.0,ABS,"Abu Simbel, Egypt",Abu Simbel Airport,22.37472222,31.60944444
10142.0,ABS,"Abu Simbel, Egypt",Abu Simbel Airport,22.37583333,31.61166667
10143.0,ABT,"Al-Baha, Saudi Arabia",King Saud Bin Abdulaziz,20.29611111,41.63416667
10143.0,ABT,"Al-Baha, Saudi Arabia",King Saud Bin Abdulaziz,20.29833333,41.63583333
10144.0,ABV,"Abuja, Nigeria",Nnamdi Azikiwe International,9.00555556,7.26611111
10144.0,ABV,"Abuja, Nigeria",Nnamdi Azikiwe International,9.00666667,7.26305556
10145.0,ABX,"Albury, Australia",Albury Airport,-36.06777778,146.95805556
10145.0,ABX,"Albury, Australia",Albury Airport,-36.06833333,146.97666667
10146.0,ABY,"Albany, GA",Southwest Georgia Regional,31.53222222,-84.19611111
10146.0,ABY,"Albany, GA",Southwest Georgia Regional,31.53555556,-84.19444444
10147.0,ABZ,"Aberdeen, United Kingdom",Aberdeen Dyce,57.20194444,-2.19777778
10147.0,ABZ,"Aberdeen, United Kingdom",Aberdeen Dyce,57.2025,-2.19805556
10147.0,ABZ,"Aberdeen, United Kingdom",Aberdeen Dyce,57.20361111,-2.19916667
10147.0,ABZ,"Aberdeen, United Kingdom",Aberdeen Dyce,57.20416667,-2.19861111
10148.0,ACA,"Acapulco, Mexico",Acapulco International,16.75722222,-99.75388889
10148.0,ACA,"Acapulco, Mexico",Acapulco International,16.75555556,-99.76694444
10148.0,ACA,"Acapulco, Mexico",Acapulco International,16.75694444,-99.75388889
10149.0,ACB,"Bellaire, MI",Antrim County,44.98472222,-85.19916667
10149.0,ACB,"Bellaire, MI",Antrim County,44.98861111,-85.19833333
10150.0,ACC,"Accra, Ghana",Kotoka International,5.59527778,-0.17083333
10150.0,ACC,"Accra, Ghana",Kotoka International,5.60444444,-0.1675
10150.0,ACC,"Accra, Ghana",Kotoka International,5.605,-0.16722222
10151.0,ACE,"Arrecife, Spain",Lanzarote,28.9425,-13.60472222
10151.0,ACE,"Arrecife, Spain",Lanzarote,28.94555556,-13.60527778
10152.0,ACH,"Altenrhein, Switzerland",St Gallen Altenrhein,47.485,9.56
10152.0,ACH,"Altenrhein, Switzerland",St Gallen Altenrhein,47.48527778,9.56
10153.0,ACI,"Alderney, United Kingdom",Alderney Airport,49.70611111,-2.21472222
10153.0,ACI,"Alderney, United Kingdom",Alderney Airport,49.70666667,-2.21444444
10153.0,ACI,"Alderney, United Kingdom",Alderney Airport,49.70666667,-2.21472222
10153.0,ACI,"Alderney, United Kingdom",Alderney Airport,49.70694444,-2.21472222
10153.0,ACI,"Alderney, United Kingdom",Alderney Airport,49.70694444,-2.21527778
10154.0,ACK,"Nantucket, MA",Nantucket Memorial,41.25305556,-70.06
10154.0,ACK,"Nantucket, MA",Nantucket Memorial,41.25305556,-70.06027778
10154.0,ACK,"Nantucket, MA",Nantucket Memorial,41.25333333,-70.06055556
10154.0,ACK,"Nantucket, MA",Nantucket Memorial,41.25666667,-70.05972222
10155.0,ACT,"Waco, TX",Waco Regional,31.61138889,-97.22861111
10155.0,ACT,"Waco, TX",Waco Regional,31.61222222,-97.23027778
10156.0,ACU,"Achutupo, Panama",Achutupo Airport,8.43333333,-77.96666667
10157.0,ACV,"Arcata/Eureka, CA",California Redwood Coast Humboldt County,40.97777778,-124.10833333
10157.0,ACV,"Arcata/Eureka, CA",California Redwood Coast Humboldt County,40.97805556,-124.10861111
10157.0,ACV,"Arcata/Eureka, CA",California Redwood Coast Humboldt County,40.97916667,-124.1075
10158.0,ACY,"Atlantic City, NJ",Atlantic City International,39.4575,-74.57722222
10158.0,ACY,"Atlantic City, NJ",Atlantic City International,39.4575,-74.57805556
10158.0,ACY,"Atlantic City, NJ",Atlantic City International,39.45666667,-74.57777778
10158.0,ACY,"Atlantic City, NJ",Atlantic City International,39.45611111,-74.57805556
10159.0,ADA,"Adana, Turkey",Adana International,36.98222222,35.28027778
10159.0,ADA,"Adana, Turkey",Adana International,36.98361111,35.28083333
10160.0,ADB,"Izmir, Turkey",Adnan Menderes,38.29222222,27.15583333
10160.0,ADB,"Izmir, Turkey",Adnan Menderes,38.29472222,27.16
10161.0,ADC,"Andakombe, Papua New Guinea",Andakombe Airport,-7.13611111,145.74416667
10161.0,ADC,"Andakombe, Papua New Guinea",Andakombe Airport,-7.13638889,145.74388889
10161.0,ADC,"Andakombe, Papua New Guinea",Andakombe Airport,-7.13722222,145.745
10162.0,ADD,"Addis Ababa, Ethiopia",Bole International,8.97805556,38.79944444
10163.0,ADE,"Aden, Yemen",Aden International,12.82777778,45.03055556
10163.0,ADE,"Aden, Yemen",Aden International,12.82944444,45.02888889
10163.0,ADE,"Aden, Yemen",Aden International,12.83444444,45.02888889
10164.0,ADJ,"Amman, Jordan",Marka International,31.97222222,35.99
10164.0,ADJ,"Amman, Jordan",Marka International,31.97277778,35.99166667
10165.0,ADK,"Adak Island, AK",Adak,51.87805556,-176.64583333
10165.0,ADK,"Adak Island, AK",Adak,51.87805556,-176.64611111
10165.0,ADK,"Adak Island, AK",Adak,51.88361111,-176.6425
10165.0,ADK,"Adak Island, AK",Adak,51.88277778,-176.64472222
10166.0,ADL,"Adelaide, Australia",Adelaide International,-34.945,138.53055556
10166.0,ADL,"Adelaide, Australia",Adelaide International,-34.9475,138.53333333
10166.0,ADL,"Adelaide, Australia",Adelaide International,-34.94833333,138.53472222
10167.0,ADM,"Ardmore, OK",Ardmore Municipal,34.30305556,-97.01972222
10167.0,ADM,"Ardmore, OK",Ardmore Municipal,34.30388889,-97.02055556
10167.0,ADM,"Ardmore, OK",Ardmore Municipal,34.30416667,-97.02055556
10168.0,ADN,"Andes, Colombia",Andes Airport,5.66666667,-75.88333333
10168.0,ADN,"Andes, Colombia",Andes Airport,5.69777778,-75.88027778
10168.0,ADN,"Andes, Colombia",Andes Airport,5.69805556,-75.87972222
10169.0,ADO,"Andamooka, Australia",Andamooka Airport,-30.43777778,137.13722222
10170.0,ADQ,"Kodiak, AK",Kodiak Airport,57.74972222,-152.49388889
10170.0,ADQ,"Kodiak, AK",Kodiak Airport,57.75,-152.49388889
10171.0,ADS,"Dallas, TX",Addison,32.96833333,-96.83611111
10171.0,ADS,"Dallas, TX",Addison,32.96861111,-96.83638889
16426.0,ADT,"Ada, OK",Ada Regional,34.80416667,-96.67111111
10172.0,ADW,"Camp Springs, MD",Joint Base Andrews,38.81083333,-76.86694444
10172.0,ADW,"Camp Springs, MD",Joint Base Andrews,38.81083333,-76.86722222
10172.0,NSF,"Camp Springs, MD",Joint Base Andrews,38.81083333,-76.86694444
10172.0,NSF,"Camp Springs, MD",Joint Base Andrews,38.81083333,-76.86722222
13748.0,ADW,"Camp Springs, MD",Joint Base Andrews,38.81083333,-76.86694444
13748.0,ADW,"Camp Springs, MD",Joint Base Andrews,38.81083333,-76.86722222
13748.0,NSF,"Camp Springs, MD",Joint Base Andrews,38.81083333,-76.86694444
13748.0,NSF,"Camp Springs, MD",Joint Base Andrews,38.81083333,-76.86722222
10173.0,ADX,"St Andrews, United Kingdom",RAF Leuchars,56.37277778,-2.86833333
10173.0,ADX,"St Andrews, United Kingdom",RAF Leuchars,56.37277778,-2.86861111
10173.0,ADX,"St Andrews, United Kingdom",RAF Leuchars,56.37416667,-2.86861111
10174.0,ADZ,"San Andres Island, Colombia",Gustavo Rojas Pinilla,12.58361111,-81.71111111
10174.0,ADZ,"San Andres Island, Colombia",Gustavo Rojas Pinilla,12.58361111,-81.71138889
10174.0,ADZ,"San Andres Island, Colombia",Gustavo Rojas Pinilla,12.58333333,-81.7
10174.0,ADZ,"San Andres Island, Colombia",Gustavo Rojas Pinilla,12.58305556,-81.71166667
16592.0,AE1,"Liwa, United Arab Emirates",Liwa Airbase,23.65138889,53.82333333
16772.0,AE2,"Sweihan, United Arab Emirates",Sweihan Airbase,24.52444444,54.97611111
10176.0,AED,"Aleneva, AK",Aleneva Airport,58.03333333,-152.9
10177.0,AEG,"Padang Sidempuan, Indonesia",Aek Godang,1.4,99.43055556
10178.0,AEH,"Abeche, Chad",Abeche Airport,13.84694444,20.84361111
10178.0,AEH,"Abeche, Chad",Abeche Airport,13.8475,20.84333333
10178.0,AEH,"Abeche, Chad",Abeche Airport,13.85138889,20.85083333
10180.0,AEO,"Aioun El Atrouss, Mauritania",Aioun El Atrouss Airport,16.70916667,-9.63555556
10180.0,AEO,"Aioun El Atrouss, Mauritania",Aioun El Atrouss Airport,16.71138889,-9.63777778
10181.0,AEP,"Buenos Aires, Argentina",Aeroparque Jorge Newbery,-34.55888889,-58.41583333
10181.0,AEP,"Buenos Aires, Argentina",Aeroparque Jorge Newbery,-34.55916667,-58.41583333
10182.0,AER,"Adler/Sochi, Russia",Adler/Sochi Airport,43.45,39.93333333
10183.0,AES,"Aalesund, Norway",Alesund,62.56027778,6.11027778
10183.0,AES,"Aalesund, Norway",Alesund,62.56111111,6.11416667
10183.0,AES,"Aalesund, Norway",Alesund,62.5625,6.10527778
10184.0,AET,"Allakaket, AK",Allakaket Airport,66.55194444,-152.62222222
10184.0,AET,"Allakaket, AK",Allakaket Airport,66.56166667,-152.65833333
10185.0,AEX,"Alexandria, LA",Alexandria International,31.3275,-92.54861111
10185.0,AEX,"Alexandria, LA",Alexandria International,31.32416667,-92.54694444
10186.0,AEY,"Akureyri, Iceland",Akureyri Airport,65.65666667,-18.07194444
10186.0,AEY,"Akureyri, Iceland",Akureyri Airport,65.65694444,-18.07222222
10186.0,AEY,"Akureyri, Iceland",Akureyri Airport,65.66,-18.07277778
16461.0,AF2,"Lashkar Gah, Afghanistan",Bastion Airfield,31.85027778,64.22361111
16461.0,AF2,"Lashkar Gah, Afghanistan",Bastion Airfield,31.85694444,64.22083333
16461.0,AF2,"Lashkar Gah, Afghanistan",Bastion Airfield,31.85694444,64.22111111
16557.0,AF3,"Dwyer, Afghanistan",Dwyer Airport,31.08972222,64.06638889
16557.0,AF3,"Dwyer, Afghanistan",Dwyer Airport,31.09194444,64.06694444
16559.0,AF4,"Shindand, Afghanistan",Shindand Airport,33.39222222,62.26111111
10188.0,AFA,"San Rafael, Argentina",San Rafael Airport,-34.58777778,-68.40333333
10188.0,AFA,"San Rafael, Argentina",San Rafael Airport,-34.58777778,-68.40361111
10188.0,AFA,"San Rafael, Argentina",San Rafael Airport,-34.58861111,-68.40277778
10188.0,AFA,"San Rafael, Argentina",San Rafael Airport,-34.58916667,-68.40055556
10189.0,AFF,"Colorado Springs, CO",USAF Academy Airfield,38.96972222,-104.8125
10189.0,AFF,"Colorado Springs, CO",USAF Academy Airfield,38.96972222,-104.81277778
10189.0,AFF,"Colorado Springs, CO",USAF Academy Airfield,38.97416667,-104.81777778
10190.0,AFK,"Nebraska, NE",Nebraska City Municipal,40.60555556,-95.86777778
10190.0,AFK,"Nebraska, NE",Nebraska City Municipal,40.60638889,-95.86666667
10190.0,AFK,"Nebraska, NE",Nebraska City Municipal,40.60666667,-95.86666667
10190.0,AFK,"Nebraska, NE",Nebraska City Municipal,40.60694444,-95.86583333
10191.0,AFO,"Afton, WY",Afton Municipal,42.70888889,-110.94222222
10191.0,AFO,"Afton, WY",Afton Municipal,42.71666667,-110.93333333
10192.0,AFP,"Wadesboro, NC",Anson County Jeff Cloud Field,35.02055556,-80.07722222
10192.0,AFP,"Wadesboro, NC",Anson County Jeff Cloud Field,35.02388889,-80.08138889
15968.0,AFU,"Doha, Qatar",Al Udeid Air Base,25.11583333,51.31527778
15968.0,AFU,"Doha, Qatar",Al Udeid Air Base,25.11722222,51.315
15968.0,AFU,"Doha, Qatar",Al Udeid Air Base,25.11833333,51.31305556
15968.0,XJD,"Doha, Qatar",Al Udeid Air Base,25.11583333,51.31527778
15968.0,XJD,"Doha, Qatar",Al Udeid Air Base,25.11722222,51.315
15968.0,XJD,"Doha, Qatar",Al Udeid Air Base,25.11833333,51.31305556
15968.0,XXJ,"Doha, Qatar",Al Udeid Air Base,25.11583333,51.31527778
15968.0,XXJ,"Doha, Qatar",Al Udeid Air Base,25.11722222,51.315
15968.0,XXJ,"Doha, Qatar",Al Udeid Air Base,25.11833333,51.31305556
10194.0,AFW,"Dallas/Fort Worth, TX",Perot Field Fort Worth Alliance,32.98666667,-97.3175
10194.0,AFW,"Dallas/Fort Worth, TX",Perot Field Fort Worth Alliance,32.9875,-97.31888889
10194.0,AFW,"Dallas/Fort Worth, TX",Perot Field Fort Worth Alliance,32.98777778,-97.31888889
10194.0,AFW,"Dallas/Fort Worth, TX",Perot Field Fort Worth Alliance,32.98944444,-97.31944444
10194.0,AFW,"Dallas/Fort Worth, TX",Perot Field Fort Worth Alliance,32.99027778,-97.31944444
10195.0,AFY,"Afyon, Turkey",Afyon Airport,38.72638889,30.60111111
10195.0,AFY,"Afyon, Turkey",Afyon Airport,38.735,30.59555556
10196.0,AGA,"Agadir, Morocco",Inezgane,30.38055556,-9.54583333
10196.0,AGA,"Agadir, Morocco",Inezgane,30.38138889,-9.54611111
10197.0,AGB,"Augsburg, Germany",Augsburg Airport,48.42444444,10.93222222
10197.0,AGB,"Augsburg, Germany",Augsburg Airport,48.42527778,10.93194444
10197.0,AGB,"Augsburg, Germany",Augsburg Airport,48.42611111,10.93305556
10198.0,AGC,"Pittsburgh, PA",Allegheny County,40.35444444,-79.92916667
10198.0,AGC,"Pittsburgh, PA",Allegheny County,40.35444444,-79.93027778
10198.0,AGC,"Pittsburgh, PA",Allegheny County,40.35472222,-79.93
10199.0,AGF,"Agen, France",Agen La Garenne,44.17388889,0.59305556
10199.0,AGF,"Agen, France",Agen La Garenne,44.17472222,0.59055556
10199.0,AGF,"Agen, France",Agen La Garenne,44.17361111,0.59861111
10200.0,AGG,"Angoram, Papua New Guinea",Angoram Airport,-4.06583333,144.07388889
10201.0,AGH,"Angelholm/Helsingborg, Sweden",Angelholm,56.29111111,12.855
10201.0,AGH,"Angelholm/Helsingborg, Sweden",Angelholm,56.29138889,12.855
10201.0,AGH,"Angelholm/Helsingborg, Sweden",Angelholm,56.29166667,12.855
10201.0,AGH,"Angelholm/Helsingborg, Sweden",Angelholm,56.29305556,12.8625
10201.0,AGH,"Angelholm/Helsingborg, Sweden",Angelholm,56.29583333,12.84972222
10202.0,AGK,"Kagua, Papua New Guinea",Kagua Airport,-6.40333333,143.84666667
10203.0,AGL,"Wanigela, Papua New Guinea",Wanigela Airport,-9.3375,149.15555556
10203.0,AGL,"Wanigela, Papua New Guinea",Wanigela Airport,-9.34027778,149.15527778
10204.0,AGN,"Angoon, AK",Angoon Seaplane Base,57.50388889,-134.58333333
10205.0,AGP,"Malaga, Spain",Malaga Airport,36.67166667,-4.49805556
10205.0,AGP,"Malaga, Spain",Malaga Airport,36.675,-4.49916667
10205.0,AGP,"Malaga, Spain",Malaga Airport,36.67972222,-4.49583333
10205.0,AGP,"Malaga, Spain",Malaga Airport,36.68,-4.49583333
10206.0,AGQ,"Agrinion, Greece",Agrinion Airport,38.60194444,21.35111111
10206.0,AGQ,"Agrinion, Greece",Agrinion Airport,38.60416667,21.35194444
10207.0,AGR,"Agra, India",Agra Airport,27.15777778,77.96083333
10207.0,AGR,"Agra, India",Agra Airport,27.15833333,77.96277778
10208.0,AGS,"Augusta, GA",Augusta Regional at Bush Field,33.36916667,-81.96444444
10208.0,AGS,"Augusta, GA",Augusta Regional at Bush Field,33.37,-81.96444444
10209.0,AGT,"Ciudad del Este, Paraguay",Guarani International,-25.45555556,-54.84361111
10210.0,AGU,"Aguascalientes, Mexico",Aguascalientes International,21.70555556,-102.31777778
10210.0,AGU,"Aguascalientes, Mexico",Aguascalientes International,21.70083333,-102.31805556
10211.0,AGV,"Acarigua, Venezuela",Oswaldo Guevara Mujica,9.55222222,-69.23333333
10211.0,AGV,"Acarigua, Venezuela",Oswaldo Guevara Mujica,9.55333333,-69.2375
10212.0,AGX,"Agatti Island, India",Agatti Island Airport,10.83333333,72.2
10213.0,AHA,"Okinawa, Japan",Naha AB,26.19194444,127.64777778
10214.0,AHB,"Abha, Saudi Arabia",Abha Airport,18.23861111,42.655
10214.0,AHB,"Abha, Saudi Arabia",Abha Airport,18.24027778,42.65638889
10214.0,AHB,"Abha, Saudi Arabia",Abha Airport,18.24027778,42.65666667
10215.0,AHD,"Ardmore, OK",Ardmore Downtown Executive,34.14694444,-97.12277778
10216.0,AHN,"Athens, GA",Athens/Ben Epps,33.94833333,-83.32694444
10216.0,AHN,"Athens, GA",Athens/Ben Epps,33.94861111,-83.32583333
10216.0,AHN,"Athens, GA",Athens/Ben Epps,33.94861111,-83.32638889
10217.0,AHO,"Alghero/Sassari, Italy",Alghero,40.63055556,8.28888889
10217.0,AHO,"Alghero/Sassari, Italy",Alghero,40.63222222,8.29083333
10218.0,AHS,"Ahuas, Honduras",Auas,15.47277778,-84.35138889
10218.0,AHS,"Ahuas, Honduras",Auas,15.47277778,-84.35305556
10219.0,AHT,"Amchitka Island, AK",Amchitka,51.37861111,179.25861111
10220.0,AHU,"Al Hoceima, Morocco",Cherif El Idrissi International,35.17722222,-3.83944444
10220.0,AHU,"Al Hoceima, Morocco",Cherif El Idrissi International,35.17972222,-3.83694444
10221.0,AIA,"Alliance, NE",Alliance Municipal,42.05166667,-102.80666667
10221.0,AIA,"Alliance, NE",Alliance Municipal,42.05333333,-102.80361111
10221.0,AIA,"Alliance, NE",Alliance Municipal,42.05333333,-102.80388889
10222.0,AIB,"Anita Bay, AK",Anita Bay Airport,56.19,-132.44583333
10223.0,AID,"Anderson, IN",Anderson Municipal-Darlington Field,40.10861111,-85.61305556
10224.0,AIK,"Aiken, SC",Aiken Regional,33.64944444,-81.685
10224.0,AIK,"Aiken, SC",Aiken Regional,33.65,-81.68472222
10225.0,AIN,"Wainwright, AK",Wainwright Airport,70.63055556,-160.04305556
10225.0,AIN,"Wainwright, AK",Wainwright Airport,70.63805556,-159.99472222
16849.0,AIO,"Atlantic, IA",Atlantic Municipal,41.40388889,-95.04861111
10226.0,AIT,"Aitutaki, Cook Islands",Aitutaki Airport,-18.83694444,-159.76083333
10226.0,AIT,"Aitutaki, Cook Islands",Aitutaki Airport,-18.83694444,-159.76111111
10226.0,AIT,"Aitutaki, Cook Islands",Aitutaki Airport,-18.83722222,-159.76111111
10226.0,AIT,"Aitutaki, Cook Islands",Aitutaki Airport,-18.8375,-159.76111111
10226.0,AIT,"Aitutaki, Cook Islands",Aitutaki Airport,-18.85,-159.75
10227.0,AIY,"Atlantic City, NJ",Bader Field,39.36,-74.45722222
10227.0,AIY,"Atlantic City, NJ",Bader Field,39.36,-74.46
10228.0,AIZ,"Lake of the Ozarks, MO",Lee C Fine Memorial,38.09611111,-92.54944444
10228.0,AIZ,"Lake of the Ozarks, MO",Lee C Fine Memorial,38.09833333,-92.54722222
10229.0,AJA,"Ajaccio, France",Ajaccio Napoleon Bonaparte,41.92166667,8.80111111
10229.0,AJA,"Ajaccio, France",Ajaccio Napoleon Bonaparte,41.92388889,8.8025
10229.0,AJA,"Ajaccio, France",Ajaccio Napoleon Bonaparte,41.92416667,8.80305556
10230.0,AJF,"Jouf, Saudi Arabia",Al Jouf,29.785,40.1
10230.0,AJF,"Jouf, Saudi Arabia",Al Jouf,29.8,40.06666667
10231.0,AJJ,"Akjoujt, Mauritania",Akjoujt Airport,19.72805556,-14.38527778
10231.0,AJJ,"Akjoujt, Mauritania",Akjoujt Airport,19.73055556,-14.37444444
10232.0,AJL,"Aizwal, India",Lengpui,23.84055556,92.61972222
10233.0,AJN,"Anjouan, Comoros",Ouani,-12.12638889,44.42972222
10233.0,AJN,"Anjouan, Comoros",Ouani,-12.13111111,44.43055556
10233.0,AJN,"Anjouan, Comoros",Ouani,-12.13222222,44.43027778
10234.0,AJR,"Arvidsjaur, Sweden",Arvidsjaur Airport,65.58611111,19.2825
10234.0,AJR,"Arvidsjaur, Sweden",Arvidsjaur Airport,65.59027778,19.28194444
10234.0,AJR,"Arvidsjaur, Sweden",Arvidsjaur Airport,65.59166667,19.2775
10235.0,AJU,"Aracaju, Brazil",Santa Maria International,-10.98388889,-37.07027778
10236.0,AJY,"Agades, Niger",Mano Dayak,16.96083333,8.00916667
10236.0,AJY,"Agades, Niger",Mano Dayak,16.96611111,8.0
10236.0,AJY,"Agades, Niger",Mano Dayak,16.96416667,7.99305556
10236.0,AJY,"Agades, Niger",Mano Dayak,16.96611111,8.00027778
16489.0,AK1,"Seward Peninsula, AK",Kelly Creek Airstrip,65.77277778,-165.89027778
16490.0,AK2,"Bear Fish Camp, AK",Bear Fish Camp Airport,60.71027778,-151.72111111
16505.0,AK3,"Fairbanks, AK",Gold King Creek,64.19805556,-147.92861111
16508.0,AK4,"Squaw Lake, AK",Squaw Lake Airport,67.58055556,-148.16472222
16580.0,AK5,"Qugruc, AK",Qugruc Airport,70.37027778,-150.42111111
16581.0,AK6,"Gold King 2, AK",Gold King 2 Airport,64.07138889,-148.0
16584.0,AK7,"Rampart, AK",Hunter Creek Mine,65.47722222,-150.05083333
16621.0,AK8,"Zips, AK",Zips Airport,60.43333333,-151.48333333
16630.0,AK9,"Tolstoi Bay, AK",Tolstoi Bay Airport,55.73333333,-132.43333333
10237.0,AKB,"Atka, AK",Atka Airport,52.22027778,-174.20694444
10237.0,AKB,"Atka, AK",Atka Airport,52.22055556,-174.20611111
10238.0,AKC,"Akron, OH",Akron Fulton International,41.0375,-81.46694444
10238.0,AKC,"Akron, OH",Akron Fulton International,41.0375,-81.46777778
10239.0,AKF,"Kufrah, Libya",Kufra,24.17888889,23.31388889
10239.0,AKF,"Kufrah, Libya",Kufra,24.17916667,23.31277778
10239.0,AKF,"Kufrah, Libya",Kufra,24.2,23.33333333
15949.0,AKH,"Al Kharj, Saudi Arabia",Prince Sultan AB,24.06805556,47.58194444
15949.0,AKH,"Al Kharj, Saudi Arabia",Prince Sultan AB,24.07027778,47.56222222
15949.0,AKH,"Al Kharj, Saudi Arabia",Prince Sultan AB,24.07055556,47.56222222
15949.0,AKH,"Al Kharj, Saudi Arabia",Prince Sultan AB,24.06333333,47.58055556
15949.0,AKH,"Al Kharj, Saudi Arabia",Prince Sultan AB,24.06194444,47.58166667
10241.0,AKI,"Akiak, AK",Akiak Airport,60.90277778,-161.23055556
10241.0,AKI,"Akiak, AK",Akiak Airport,60.90555556,-161.22333333
10242.0,AKJ,"Asahikawa, Japan",Asahikawa Airport,43.67083333,142.4475
10242.0,AKJ,"Asahikawa, Japan",Asahikawa Airport,43.67083333,142.45138889
10242.0,AKJ,"Asahikawa, Japan",Asahikawa Airport,43.67083333,142.45166667
10243.0,AKK,"Akhiok, AK",Akhiok Airport,56.93861111,-154.1825
10243.0,AKK,"Akhiok, AK",Akhiok Airport,56.945,-154.16666667
10244.0,AKL,"Auckland, New Zealand",Auckland International,-37.00805556,174.79166667
10244.0,AKL,"Auckland, New Zealand",Auckland International,-37.01111111,174.79916667
10244.0,AKL,"Auckland, New Zealand",Auckland International,-37.01194444,174.78638889
10245.0,AKN,"King Salmon, AK",King Salmon Airport,58.67638889,-156.64861111
10245.0,AKN,"King Salmon, AK",King Salmon Airport,58.67777778,-156.65166667
10246.0,AKO,"Akron, CO",Colorado Plains Regional,40.17555556,-103.22222222
10246.0,AKO,"Akron, CO",Colorado Plains Regional,40.17555556,-103.22194444
10247.0,AKP,"Anaktuvuk Pass, AK",Anaktuvuk Pass Airport,68.13361111,-151.74333333
10247.0,AKP,"Anaktuvuk Pass, AK",Anaktuvuk Pass Airport,68.1375,-151.74
10248.0,AKR,"Akure, Nigeria",Akure Airport,7.24666667,5.30111111
10248.0,AKR,"Akure, Nigeria",Akure Airport,7.25833333,5.30416667
10249.0,AKS,"Auki, Solomon Islands",Auki Airport,-8.69777778,160.68083333
10249.0,AKS,"Auki, Solomon Islands",Auki Airport,-8.7025,160.68166667
10250.0,AKT,"Akrotiri, Cyprus",Akrotiri Airport,34.59027778,32.9875
10250.0,AKT,"Akrotiri, Cyprus",Akrotiri Airport,34.59027778,32.98777778
10251.0,AKX,"Aktyubinsk, Kazakhstan",Aktyubinsk Airport,50.25,57.21666667
10252.0,AKY,"Sittwe, Burma",Sittwe Airport,20.13027778,92.88027778
10252.0,AKY,"Sittwe, Burma",Sittwe Airport,20.13277778,92.8725
10252.0,AKY,"Sittwe, Burma",Sittwe Airport,20.13333333,92.87055556
10253.0,AL1,"Albertville, AL",Albertville Regional-Thomas J Brumlik Field,34.22916667,-86.25583333
10254.0,AL2,"Alabaster, AL",Shelby County,33.17694444,-86.78277778
10254.0,AL2,"Alabaster, AL",Shelby County,33.17777778,-86.78333333
10255.0,AL3,"Huntsville, AL",Huntsville Executive Tom Sharp Jr,34.85944444,-86.5575
10255.0,AL3,"Huntsville, AL",Huntsville Executive Tom Sharp Jr,34.86138889,-86.5575
16423.0,AL4,"Andalusia/Opp, AL",South Alabama Regional at Bill Benton Field,31.30833333,-86.39222222
16423.0,AL4,"Andalusia/Opp, AL",South Alabama Regional at Bill Benton Field,31.30888889,-86.39388889
16455.0,AL5,"Demopolis, AL",Demopolis Regional,32.46388889,-87.95416667
16497.0,AL6,"Fairhope, AL",H. L. Sonny Callahan,30.46055556,-87.87694444
16669.0,AL7,"Jasper, AL",Walker County Bevill Field,33.90194444,-87.31388889
16737.0,AL8,"Scottsboro, AL",Scottsboro Municipal Word Field,34.68722222,-86.005
16737.0,AL8,"Scottsboro, AL",Scottsboro Municipal Word Field,34.68861111,-86.00583333
16790.0,AL9,"Sylacauga, AL",Merkel Field Sylacauga Municipal,33.17194444,-86.30555556
10256.0,ALA,"Almaty, Kazakhstan",Almaty Airport,43.35,77.03333333
10256.0,ALA,"Almaty, Kazakhstan",Almaty Airport,43.35555556,77.04388889
10257.0,ALB,"Albany, NY",Albany International,42.74583333,-73.80527778
10257.0,ALB,"Albany, NY",Albany International,42.74916667,-73.80194444
10258.0,ALC,"Alicante, Spain",Alicante Airport,38.28222222,-0.55805556
10258.0,ALC,"Alicante, Spain",Alicante Airport,38.28222222,-0.55833333
10258.0,ALC,"Alicante, Spain",Alicante Airport,38.2825,-0.55833333
10258.0,ALC,"Alicante, Spain",Alicante Airport,38.28361111,-0.55861111
10259.0,ALE,"Alpine, TX",Alpine Casparis Municipal,30.38416667,-103.68305556
10259.0,ALE,"Alpine, TX",Alpine Casparis Municipal,30.38416667,-103.68361111
10260.0,ALF,"Alta, Norway",Alta Airport,69.97611111,23.37166667
10260.0,ALF,"Alta, Norway",Alta Airport,69.97611111,23.38055556
10260.0,ALF,"Alta, Norway",Alta Airport,69.9775,23.36472222
10261.0,ALG,"Algiers, Algeria",Houari Boumediene,36.69083333,3.21555556
10261.0,ALG,"Algiers, Algeria",Houari Boumediene,36.69111111,3.21527778
10261.0,ALG,"Algiers, Algeria",Houari Boumediene,36.6925,3.215
10261.0,ALG,"Algiers, Algeria",Houari Boumediene,36.69333333,3.21722222
10262.0,ALH,"Albany, Australia",Albany Airport,-34.94333333,117.80888889
10262.0,ALH,"Albany, Australia",Albany Airport,-34.94444444,117.80888889
10262.0,ALH,"Albany, Australia",Albany Airport,-34.945,117.80583333
10263.0,ALI,"Alice, TX",Alice International,27.74083333,-98.02694444
10263.0,ALI,"Alice, TX",Alice International,27.74083333,-98.02722222
10264.0,ALJ,"Alexander Bay, South Africa",Alexander Bay Airport,-28.56722222,16.53638889
10264.0,ALJ,"Alexander Bay, South Africa",Alexander Bay Airport,-28.57138889,16.53055556
10264.0,ALJ,"Alexander Bay, South Africa",Alexander Bay Airport,-28.575,16.53333333
10265.0,ALK,"Asela, Ethiopia",Asela Airport,7.58333333,39.06666667
16889.0,ALL,"Liguria, Italy",Albenga,44.05055556,8.1275
10266.0,ALM,"Alamogordo, NM",Alamogordo White Sands Regional,32.83944444,-105.99111111
10266.0,ALM,"Alamogordo, NM",Alamogordo White Sands Regional,32.83972222,-105.99
10266.0,ALM,"Alamogordo, NM",Alamogordo White Sands Regional,32.84,-105.99055556
10266.0,ALM,"Alamogordo, NM",Alamogordo White Sands Regional,32.84138889,-105.98888889
10267.0,ALN,"Alton, IL",St. Louis Regional,38.89,-90.04611111
10267.0,ALN,"Alton, IL",St. Louis Regional,38.89166667,-90.04833333
10268.0,ALO,"Waterloo, IA",Waterloo Regional,42.55611111,-92.39972222
10268.0,ALO,"Waterloo, IA",Waterloo Regional,42.55694444,-92.40027778
10268.0,ALO,"Waterloo, IA",Waterloo Regional,42.55833333,-92.40111111
10269.0,ALP,"Aleppo, Syria",Aleppo International,36.18055556,37.22444444
10269.0,ALP,"Aleppo, Syria",Aleppo International,36.18083333,37.22666667
10270.0,ALQ,"Alegrete, Brazil",Alegrete Airport,-29.79972222,-55.76333333
10271.0,ALR,"Alexandra, New Zealand",Alexandra Airport,-45.21138889,169.37166667
10271.0,ALR,"Alexandra, New Zealand",Alexandra Airport,-45.21388889,169.36944444
10272.0,ALS,"Alamosa, CO",San Luis Valley Regional/Bergman Field,37.43666667,-105.86666667
10272.0,ALS,"Alamosa, CO",San Luis Valley Regional/Bergman Field,37.435,-105.86666667
10272.0,ALS,"Alamosa, CO",San Luis Valley Regional/Bergman Field,37.435,-105.86777778
10273.0,ALT,"Alenquer, Brazil",Alenquer Airport,-1.94055556,-54.74027778
10274.0,ALU,"Alula, Somalia",Alula Airport,11.98333333,50.78333333
10275.0,ALW,"Walla Walla, WA",Walla Walla Regional,46.0925,-118.28416667
10275.0,ALW,"Walla Walla, WA",Walla Walla Regional,46.09472222,-118.28888889
10275.0,ALW,"Walla Walla, WA",Walla Walla Regional,46.09472222,-118.29111111
10275.0,ALW,"Walla Walla, WA",Walla Walla Regional,46.09527778,-118.28583333
10276.0,ALX,"Alexander City, AL",Thomas C. Russell Field,32.91472222,-85.96305556
10276.0,ALX,"Alexander City, AL",Thomas C. Russell Field,32.91666667,-85.96666667
10277.0,ALY,"Alexandria, Egypt",Alexandria International,31.18361111,29.94861111
10277.0,ALY,"Alexandria, Egypt",Alexandria International,31.18777778,29.94805556
10278.0,ALZ,"Lazy Bay, AK",Alitak Seaplane Base,56.89583333,-154.24583333
10279.0,AMA,"Amarillo, TX",Rick Husband Amarillo International,35.22722222,-101.72194444
10279.0,AMA,"Amarillo, TX",Rick Husband Amarillo International,35.21944444,-101.70583333
10280.0,AMD,"Ahmedabad, India",Sardar Vallabh Bhai Patel International,23.06638889,72.62416667
10280.0,AMD,"Ahmedabad, India",Sardar Vallabh Bhai Patel International,23.07722222,72.63444444
10281.0,AMF,"Ama, Papua New Guinea",Ama Airport,-4.10055556,141.66972222
10281.0,AMF,"Ama, Papua New Guinea",Ama Airport,-4.10166667,141.66972222
10282.0,AMG,"Amboin, Papua New Guinea",Amboin Airport,-4.6,143.5
10283.0,AMH,"Arba Minch, Ethiopia",Arba Minch Airport,6.03611111,37.57694444
10283.0,AMH,"Arba Minch, Ethiopia",Arba Minch Airport,6.03944444,37.59083333
10284.0,AMI,"Mataram, Indonesia",Selaparang,-8.56,116.09694444
10284.0,AMI,"Mataram, Indonesia",Selaparang,-8.56055556,116.09472222
10284.0,AMI,"Mataram, Indonesia",Selaparang,-8.56083333,116.09472222
10285.0,AMK,"Durango, CO",Animas Air Park,37.20305556,-107.86916667
10285.0,AMK,"Durango, CO",Animas Air Park,37.20388889,-107.86861111
10286.0,AML,"Puerto Armuelles, Panama",Puerto Armuelles Airport,8.26555556,-82.86555556
10286.0,AML,"Puerto Armuelles, Panama",Puerto Armuelles Airport,8.2675,-82.86472222
10287.0,AMM,"Amman, Jordan",Queen Alia International,31.7225,35.99333333
10287.0,AMM,"Amman, Jordan",Queen Alia International,31.72333333,35.99416667
10288.0,AMN,"Alma, MI",Gratiot Community,43.32083333,-84.68666667
10288.0,AMN,"Alma, MI",Gratiot Community,43.32222222,-84.68805556
10289.0,AMO,"Mao, Chad",Mao Airport,14.14638889,15.31527778
10289.0,AMO,"Mao, Chad",Mao Airport,14.14722222,15.31444444
10290.0,AMP,"Ampanihy, Madagascar",Ampanihy Airport,-24.69944444,44.73277778
10290.0,AMP,"Ampanihy, Madagascar",Ampanihy Airport,-24.69944444,44.73305556
10291.0,AMQ,"Ambon, Indonesia",Pattimura,-3.71027778,128.08972222
10292.0,AMS,"Amsterdam, Netherlands",Schiphol,52.30833333,4.76805556
10292.0,AMS,"Amsterdam, Netherlands",Schiphol,52.30861111,4.76388889
10294.0,AMW,"Ames, IA",Ames Municipal,41.99194444,-93.62194444
10294.0,AMW,"Ames, IA",Ames Municipal,41.99416667,-93.61833333
10295.0,AMX,"Ammaroo, Australia",Ammaroo Station,-21.74,135.24
10296.0,AMY,"Ambatomainty, Madagascar",Ambatomainty Airport,-17.68555556,45.62527778
10296.0,AMY,"Ambatomainty, Madagascar",Ambatomainty Airport,-17.68611111,45.625
10297.0,ANA,"Anaheim, CA",Anaheim-Disneyland HP,33.81666667,-117.93333333
10298.0,ANB,"Anniston, AL",Anniston Regional,33.58805556,-85.85805556
10298.0,ANB,"Anniston, AL",Anniston Regional,33.59027778,-85.85583333
10299.0,ANC,"Anchorage, AK",Ted Stevens Anchorage International,61.16916667,-149.98527778
10299.0,ANC,"Anchorage, AK",Ted Stevens Anchorage International,61.17416667,-149.99805556
10299.0,ANC,"Anchorage, AK",Ted Stevens Anchorage International,61.17444444,-149.99611111
10299.0,ANC,"Anchorage, AK",Ted Stevens Anchorage International,61.17444444,-149.99638889
10300.0,AND,"Anderson, SC",Anderson Regional,34.49361111,-82.71
10300.0,AND,"Anderson, SC",Anderson Regional,34.49444444,-82.70944444
10301.0,ANE,"Angers, France",Angers Marce,47.56,-0.31277778
10301.0,ANE,"Angers, France",Angers Marce,47.56027778,-0.31277778
10301.0,ANE,"Angers, France",Angers Marce,47.49722222,-0.57277778
10302.0,ANF,"Antofagasta, Chile",Andres Sabella International,-23.44444444,-70.445
10302.0,ANF,"Antofagasta, Chile",Andres Sabella International,-23.44527778,-70.44527778
10302.0,ANF,"Antofagasta, Chile",Andres Sabella International,-23.43944444,-70.44277778
10303.0,ANG,"Angouleme, France",Angouleme Brie Champniers,45.72944444,0.21833333
10303.0,ANG,"Angouleme, France",Angouleme Brie Champniers,45.72944444,0.21972222
10304.0,ANI,"Aniak, AK",Aniak Airport,61.58138889,-159.54527778
10304.0,ANI,"Aniak, AK",Aniak Airport,61.58166667,-159.54305556
10305.0,ANK,"Ankara, Turkey",Etimesgut,39.95027778,32.6875
10305.0,ANK,"Ankara, Turkey",Etimesgut,39.95166667,32.68805556
10305.0,ANK,"Ankara, Turkey",Etimesgut,39.95194444,32.68611111
10306.0,ANM,"Antalaha, Madagascar",Antsirabato,-14.99944444,50.32027778
10306.0,ANM,"Antalaha, Madagascar",Antsirabato,-15.0,50.32138889
10307.0,ANN,"Annette, AK",Annette Island,55.03694444,-131.57055556
10307.0,ANN,"Annette, AK",Annette Island,55.04222222,-131.57083333
10307.0,ANN,"Annette, AK",Annette Island,55.0425,-131.57222222
10308.0,ANO,"Angoche, Mozambique",Angoche Airport,-16.17777778,39.93694444
10308.0,ANO,"Angoche, Mozambique",Angoche Airport,-16.1825,39.945
10308.0,ANO,"Angoche, Mozambique",Angoche Airport,-16.1825,39.94527778
10309.0,ANP,"Annapolis, MD",Lee,38.94277778,-76.56833333
10309.0,ANP,"Annapolis, MD",Lee,38.94277778,-76.56888889
10310.0,ANR,"Antwerp, Belgium",Deurne,51.19,4.46
10310.0,ANR,"Antwerp, Belgium",Deurne,51.18944444,4.46027778
10310.0,ANR,"Antwerp, Belgium",Deurne,51.19,4.46305556
10311.0,ANS,"Andahuaylas, Peru",Andahuaylas Airport,-13.70861111,-73.35111111
10311.0,ANS,"Andahuaylas, Peru",Andahuaylas Airport,-13.70888889,-73.35138889
10311.0,ANS,"Andahuaylas, Peru",Andahuaylas Airport,-13.70888889,-73.35166667
10312.0,ANU,"St. Johns, Antigua and Barbuda",V C Bird International,17.10833333,-61.76388889
10312.0,ANU,"St. Johns, Antigua and Barbuda",V C Bird International,17.13611111,-61.79388889
10312.0,ANU,"St. Johns, Antigua and Barbuda",V C Bird International,17.13666667,-61.79277778
10312.0,ANU,"St. Johns, Antigua and Barbuda",V C Bird International,17.1375,-61.79
10313.0,ANV,"Anvik, AK",Anvik Airport,62.64722222,-160.19
10313.0,ANV,"Anvik, AK",Anvik Airport,62.64777778,-160.18888889
10314.0,ANX,"Andeness, Norway",Andoya,69.2925,16.14416667
10314.0,ANX,"Andeness, Norway",Andoya,69.29305556,16.14166667
10314.0,ANX,"Andeness, Norway",Andoya,69.2975,16.13555556
10317.0,AOH,"Lima, OH",Lima Allen County,40.70833333,-84.02666667
10317.0,AOH,"Lima, OH",Lima Allen County,40.70833333,-84.02694444
10318.0,AOI,"Ancona, Italy",Ancona Falconara,43.61638889,13.36222222
10318.0,AOI,"Ancona, Italy",Ancona Falconara,43.6175,13.36416667
10319.0,AOJ,"Aomori, Japan",Aomori Airport,40.73333333,140.68861111
10319.0,AOJ,"Aomori, Japan",Aomori Airport,40.73472222,140.68972222
10320.0,AOK,"Karpathos, Greece",Karpathos Airport,35.42083333,27.14555556
10320.0,AOK,"Karpathos, Greece",Karpathos Airport,35.42111111,27.14583333
10320.0,AOK,"Karpathos, Greece",Karpathos Airport,35.42388889,27.14722222
10321.0,AOL,"Paso de Los Libres, Argentina",Paso de Los Libres Airport,-29.68944444,-57.15194444
10321.0,AOL,"Paso de Los Libres, Argentina",Paso de Los Libres Airport,-29.69,-57.14861111
10322.0,AOO,"Altoona, PA",Altoona-Blair County,40.29638889,-78.32
10322.0,AOO,"Altoona, PA",Altoona-Blair County,40.29722222,-78.32
10323.0,AOR,"Alor Setar, Malaysia",Sultan Abdul Halim,6.18972222,100.39833333
10323.0,AOR,"Alor Setar, Malaysia",Sultan Abdul Halim,6.19111111,100.40388889
10324.0,AOS,"Amook Bay, AK",Amook Bay Airport,57.45472222,-153.81305556
10325.0,APA,"Denver, CO",Centennial,39.57277778,-104.84777778
10325.0,APA,"Denver, CO",Centennial,39.57,-104.84916667
10325.0,APA,"Denver, CO",Centennial,39.57,-104.84944444
10325.0,APA,"Denver, CO",Centennial,39.57027778,-104.84944444
10326.0,APB,"Apolo, Bolivia",Apolo Airport,-14.73666667,-68.41305556
10326.0,APB,"Apolo, Bolivia",Apolo Airport,-14.73888889,-68.41111111
10326.0,APB,"Apolo, Bolivia",Apolo Airport,-14.73888889,-68.41138889
10326.0,APB,"Apolo, Bolivia",Apolo Airport,-14.74,-68.4075
10326.0,APB,"Apolo, Bolivia",Apolo Airport,-14.74027778,-68.41111111
10327.0,APC,"Napa, CA",Napa County,38.21222222,-122.28
10327.0,APC,"Napa, CA",Napa County,38.21305556,-122.28055556
10327.0,APC,"Napa, CA",Napa County,38.21361111,-122.28027778
10328.0,APE,"San Juan Aposento, Peru",San Juan Aposento Airport,-15.35,-75.16666667
10329.0,APF,"Naples, FL",Naples Municipal,26.15222222,-81.77583333
10329.0,APF,"Naples, FL",Naples Municipal,26.1525,-81.77555556
10329.0,APF,"Naples, FL",Naples Municipal,26.15277778,-81.77527778
10330.0,APG,"Aberdeen, MD",Phillips AAF,39.46555556,-76.16833333
10330.0,APG,"Aberdeen, MD",Phillips AAF,39.46611111,-76.16888889
10330.0,APG,"Aberdeen, MD",Phillips AAF,39.46611111,-76.16972222
16767.0,APH,"Fort A P Hill, VA",Mary Walker Lz,38.06861111,-77.31888889
16767.0,APH,"Fort A P Hill, VA",Mary Walker Lz,38.06888889,-77.31833333
15642.0,API,"Villavicencio, Colombia",Capt Luis F Gomez Nino,4.07611111,-73.56277778
10331.0,APK,"Apataki, French Polynesia",Apataki Airport,-15.56666667,-146.41666667
10331.0,APK,"Apataki, French Polynesia",Apataki Airport,-15.57527778,-146.41305556
10332.0,APL,"Nampula, Mozambique",Nampula Airport,-15.10166667,39.28722222
10332.0,APL,"Nampula, Mozambique",Nampula Airport,-15.10555556,39.28166667
10333.0,APN,"Alpena, MI",Alpena County Regional,45.07805556,-83.56027778
10333.0,APN,"Alpena, MI",Alpena County Regional,45.08166667,-83.55583333
10334.0,APO,"Apartado, Colombia",Apartado Airport,7.03333333,-77.2
10335.0,APR,"April River, Papua New Guinea",April River Airport,-4.67361111,142.53777778
10335.0,APR,"April River, Papua New Guinea",April River Airport,-4.67638889,142.54
10336.0,APT,"Jasper, TN",Marion County Brown Field,35.06055556,-85.58527778
10337.0,APV,"Apple Valley, CA",Apple Valley Airport,34.52638889,-117.21277778
10337.0,APV,"Apple Valley, CA",Apple Valley Airport,34.57527778,-117.18611111
10338.0,APW,"Apia, Samoa",Faleolo International,-13.83333333,-172.0
10338.0,APW,"Apia, Samoa",Faleolo International,-13.82833333,-172.01194444
10338.0,APW,"Apia, Samoa",Faleolo International,-13.83,-172.00833333
16833.0,AQ1,"McMurdo Station, Antarctica",McMurdo Station Phoenix Field,-77.95666667,166.75583333
16833.0,AQ1,"McMurdo Station, Antarctica",McMurdo Station Phoenix Field,-77.95666667,166.75777778
16833.0,AQ1,"McMurdo Station, Antarctica",McMurdo Station Phoenix Field,-77.95666667,166.75972222
16833.0,AQ1,"McMurdo Station, Antarctica",McMurdo Station Phoenix Field,-77.95694444,166.74944444
16834.0,AQ2,"Terra Nova Bay, Antarctica",Mario Zucchelli,-74.68333333,164.11666667
10339.0,AQI,"Qaisumah, Saudi Arabia",Al Qaisumah International,28.33527778,46.125
10339.0,AQI,"Qaisumah, Saudi Arabia",Al Qaisumah International,28.33611111,46.12694444
10340.0,AQJ,"Aqaba, Jordan",King Hussein International,29.61111111,35.01777778
10340.0,AQJ,"Aqaba, Jordan",King Hussein International,29.6125,35.01944444
10342.0,AQP,"Arequipa, Peru",Rodriguez Ballon International,-16.33777778,-71.555
10342.0,AQP,"Arequipa, Peru",Rodriguez Ballon International,-16.34055556,-71.57083333
10342.0,AQP,"Arequipa, Peru",Rodriguez Ballon International,-16.34111111,-71.58305556
10343.0,AQS,"Saqani, Fiji",Saqani Airport,-16.75,179.35
10344.0,AQY,"Girdwood, AK",Girdwood Airport,60.96611111,-149.12583333
10344.0,AQY,"Girdwood, AK",Girdwood Airport,60.96666667,-149.12361111
10344.0,AQY,"Girdwood, AK",Girdwood Airport,60.96888889,-149.11944444
10345.0,AR1,"Russellville, AR",Russellville Regional,35.25916667,-93.0925
10345.0,AR1,"Russellville, AR",Russellville Regional,35.25916667,-93.09333333
10345.0,AR1,"Russellville, AR",Russellville Regional,35.26472222,-93.09388889
10346.0,AR2,"Conway, AR",Dennis F Cantrell Field,35.08083333,-92.425
10346.0,AR2,"Conway, AR",Dennis F Cantrell Field,35.08111111,-92.42444444
16738.0,AR3,"Bentonville, AR",Bentonville Municipal Louise M Thaden Field,36.34527778,-94.21944444
16738.0,AR3,"Bentonville, AR",Bentonville Municipal Louise M Thaden Field,36.34583333,-94.21944444
16886.0,AR4,"Colt, AR",Delta Regional,35.11999999,-90.82638889
10347.0,ARA,"New Iberia, LA",Acadiana Regional,30.03777778,-91.88388889
10347.0,ARA,"New Iberia, LA",Acadiana Regional,30.0375,-91.88388889
10348.0,ARB,"Ann Arbor, MI",Ann Arbor Municipal,42.22277778,-83.74444444
10348.0,ARB,"Ann Arbor, MI",Ann Arbor Municipal,42.22305556,-83.74555556
10348.0,ARB,"Ann Arbor, MI",Ann Arbor Municipal,42.22305556,-83.74583333
10349.0,ARC,"Arctic Village, AK",Arctic Village Airport,68.11472222,-145.57944444
10349.0,ARC,"Arctic Village, AK",Arctic Village Airport,68.1375,-145.52444444
10350.0,ARD,"Alor, Indonesia",Arcadia Municipal,-8.25,124.75
10351.0,ARE,"Arecibo, PR",Antonio/Nery/Juarbe Pol,18.45,-66.67527778
10351.0,ARE,"Arecibo, PR",Antonio/Nery/Juarbe Pol,18.45027778,-66.67583333
10351.0,ARE,"Arecibo, PR",Antonio/Nery/Juarbe Pol,18.45083333,-66.67555556
10351.0,ARE,"Arecibo, PR",Antonio/Nery/Juarbe Pol,18.45,-66.67583333
10352.0,ARG,"Walnut Ridge, AR",Walnut Ridge Regional,36.12472222,-90.925
10352.0,ARG,"Walnut Ridge, AR",Walnut Ridge Regional,36.125,-90.92638889
10353.0,ARH,"Arkhangelsk, Russia",Talagi,64.60027778,40.71666667
10353.0,ARH,"Arkhangelsk, Russia",Talagi,64.56666667,40.53333333
10353.0,ARH,"Arkhangelsk, Russia",Talagi,64.60027778,40.73333333
10354.0,ARI,"Arica, Chile",Chacalluta,-18.33305556,-70.33805556
10354.0,ARI,"Arica, Chile",Chacalluta,-18.34861111,-70.33861111
10355.0,ARK,"Arusha, Tanzania",Arusha Airport,-3.36416667,36.62472222
10355.0,ARK,"Arusha, Tanzania",Arusha Airport,-3.36666667,36.62555556
10356.0,ARM,"Armidale, Australia",Armidale Airport,-30.52805556,151.61722222
10356.0,ARM,"Armidale, Australia",Armidale Airport,-30.52833333,151.62333333
10356.0,ARM,"Armidale, Australia",Armidale Airport,-30.52888889,151.61694444
10357.0,ARN,"Stockholm, Sweden",Arlanda,59.65194444,17.91861111
10357.0,ARN,"Stockholm, Sweden",Arlanda,59.66194444,17.93388889
10358.0,ARP,"Aragip, Papua New Guinea",Aragip Airport,-9.87055556,149.48361111
10358.0,ARP,"Aragip, Papua New Guinea",Aragip Airport,-9.87083333,149.48416667
10358.0,ARP,"Aragip, Papua New Guinea",Aragip Airport,-9.87333333,149.48305556
10359.0,ARQ,"Arauquita, Colombia",Arauquita Airport,7.02111111,-71.38888889
10360.0,ARS,"Aragarcas, Brazil",Aragarcas Airport,-15.89944444,-52.24111111
10360.0,ARS,"Aragarcas, Brazil",Aragarcas Airport,-15.9,-52.23333333
10361.0,ART,"Watertown, NY",Watertown International,43.99083333,-76.02138889
10361.0,ART,"Watertown, NY",Watertown International,43.99194444,-76.01944444
10361.0,ART,"Watertown, NY",Watertown International,43.99194444,-76.02055556
10362.0,ARU,"Aracatuba, Brazil",Aracatuba Airport,-21.14138889,-50.42444444
10362.0,ARU,"Aracatuba, Brazil",Aracatuba Airport,-21.14138889,-50.42472222
10362.0,ARU,"Aracatuba, Brazil",Aracatuba Airport,-21.14361111,-50.42611111
10363.0,ARV,"Minocqua/Woodruff, WI",Lakeland/Noble F. Lee Memorial Field,45.92805556,-89.73083333
10364.0,ARW,"Arad, Romania",Arad International,46.17666667,21.26194444
10364.0,ARW,"Arad, Romania",Arad International,46.18333333,21.26666667
10365.0,ARX,"Asbury Park, NJ",Asbury Park/Monmouth County,40.18333333,-74.11666667
10366.0,ARY,"Ararat, Australia",Ararat Airport,-37.30944444,142.98861111
10366.0,ARY,"Ararat, Australia",Ararat Airport,-37.31194444,142.99055556
10367.0,ARZ,"N'zeto, Angola",N'zeto Airport,-7.25888889,12.8625
10367.0,ARZ,"N'zeto, Angola",N'zeto Airport,-7.25944444,12.86277778
10367.0,ARZ,"N'zeto, Angola",N'zeto Airport,-7.2225,12.86861111
10368.0,ASA,"Assab, Eritrea",Assab International,13.07166667,42.645
10368.0,ASA,"Assab, Eritrea",Assab International,13.07333333,42.63694444
10368.0,ASA,"Assab, Eritrea",Assab International,13.07,42.63833333
10369.0,ASB,"Ashgabat, Turkmenistan",Ashgabat Airport,37.98166667,58.36083333
10369.0,ASB,"Ashgabat, Turkmenistan",Ashgabat Airport,37.98694444,58.36111111
10370.0,ASC,"Ascension, Bolivia",Ascension Airport,-15.91666667,-63.15
10371.0,ASD,"Andros Town, The Bahamas",Andros Town International,24.69777778,-77.79611111
10371.0,ASD,"Andros Town, The Bahamas",Andros Town International,24.69805556,-77.79555556
10372.0,ASE,"Aspen, CO",Aspen Pitkin County Sardy Field,39.22194444,-106.86833333
10372.0,ASE,"Aspen, CO",Aspen Pitkin County Sardy Field,39.22305556,-106.86888889
10372.0,ASE,"Aspen, CO",Aspen Pitkin County Sardy Field,39.22416667,-106.86888889
16674.0,ASF,"Astrakhan, Russia",Narimanova,46.28277778,48.01083333
10373.0,ASG,"Ashburton, New Zealand",Ashburton Airport,-43.90277778,171.79972222
10373.0,ASG,"Ashburton, New Zealand",Ashburton Airport,-43.905,171.79666667
10374.0,ASH,"Nashua, NH",Boire Field,42.77888889,-71.50944444
10374.0,ASH,"Nashua, NH",Boire Field,42.78166667,-71.51472222
10374.0,ASH,"Nashua, NH",Boire Field,42.7825,-71.51416667
10375.0,ASI,"Ascension Island, Saint Helena, Ascension, and Tristan da Cunha",Ascension Aux Af,-7.96972222,-14.39361111
10375.0,ASI,"Ascension Island, Saint Helena, Ascension, and Tristan da Cunha",Ascension Aux Af,-7.97027778,-14.39361111
10376.0,ASJ,"Amami O Shima, Japan",Amami,28.41694444,129.6975
10376.0,ASJ,"Amami O Shima, Japan",Amami,28.43055556,129.7125
10377.0,ASK,"Yamoussoukro, Cote d'Ivoire",Yamoussoukro Airport,6.90305556,-5.36611111
10377.0,ASK,"Yamoussoukro, Cote d'Ivoire",Yamoussoukro Airport,6.90555556,-5.36416667
10378.0,ASL,"Marshall, TX",Harrison County,32.52055556,-94.30777778
10378.0,ASL,"Marshall, TX",Harrison County,32.52166667,-94.30805556
10379.0,ASM,"Asmara, Eritrea",Asmara International,15.28777778,38.90805556
10379.0,ASM,"Asmara, Eritrea",Asmara International,15.29194444,38.91111111
10379.0,ASM,"Asmara, Eritrea",Asmara International,15.29333333,38.90888889
10379.0,ASM,"Asmara, Eritrea",Asmara International,15.29111111,38.91027778
10380.0,ASN,"Talladega, AL",Talladega Municipal,33.56944444,-86.05111111
10380.0,ASN,"Talladega, AL",Talladega Municipal,33.56972222,-86.05083333
10381.0,ASO,"Asosa, Ethiopia",Asosa Hidase,10.02055556,34.58222222
10381.0,ASO,"Asosa, Ethiopia",Asosa Hidase,10.02055556,34.59888889
10381.0,ASO,"Asosa, Ethiopia",Asosa Hidase,10.04722222,34.53666667
10382.0,ASP,"Alice Springs, Australia",Alice Springs Airport,-23.80333333,133.88416667
10382.0,ASP,"Alice Springs, Australia",Alice Springs Airport,-23.80444444,133.89527778
10382.0,ASP,"Alice Springs, Australia",Alice Springs Airport,-23.80833333,133.90083333
10383.0,ASQ,"Austin, NV",Austin Airport,39.46805556,-117.19527778
10383.0,ASQ,"Austin, NV",Austin Airport,39.46805556,-117.1975
10383.0,ASQ,"Austin, NV",Austin Airport,39.46888889,-117.19611111
10384.0,ASR,"Kayseri, Turkey",Kayseri Airport,38.77027778,35.49555556
10384.0,ASR,"Kayseri, Turkey",Kayseri Airport,38.70416667,35.50972222
10385.0,AST,"Astoria/Seaside, OR",Astoria Regional,46.15805556,-123.87861111
10385.0,AST,"Astoria/Seaside, OR",Astoria Regional,46.15972222,-123.88
10386.0,ASU,"Asuncion, Paraguay",Silvio Pettirossi International,-25.23916667,-57.51916667
10386.0,ASU,"Asuncion, Paraguay",Silvio Pettirossi International,-25.23972222,-57.51916667
10386.0,ASU,"Asuncion, Paraguay",Silvio Pettirossi International,-25.24111111,-57.51694444
10387.0,ASW,"Aswan, Egypt",Aswan International,23.96444444,32.82
10387.0,ASW,"Aswan, Egypt",Aswan International,23.965,32.82166667
10388.0,ASX,"Ashland, WI",John F Kennedy Memorial,46.54861111,-90.91861111
10388.0,ASX,"Ashland, WI",John F Kennedy Memorial,46.54861111,-90.91888889
10389.0,ASY,"Ashley, ND",Ashley Municipal,46.02305556,-99.35277778
10389.0,ASY,"Ashley, ND",Ashley Municipal,46.02388889,-99.3525
10389.0,ASY,"Ashley, ND",Ashley Municipal,46.02388889,-99.35277778
10389.0,ASY,"Ashley, ND",Ashley Municipal,46.02472222,-99.35166667
10390.0,ATA,"Anta, Peru",Anta Huaraz,-9.34722222,-77.6
10391.0,ATB,"Atbara, Sudan",Atbara Airport,17.70972222,34.05722222
10392.0,ATC,"Arthur's Town, The Bahamas",Arthur's Town Airport,24.62944444,-75.67388889
10393.0,ATE,"Antlers, OK",Antlers Municipal,34.1925,-95.64972222
10393.0,ATE,"Antlers, OK",Antlers Municipal,34.1925,-95.65
10393.0,ATE,"Antlers, OK",Antlers Municipal,34.19277778,-95.64972222
10393.0,ATE,"Antlers, OK",Antlers Municipal,34.19361111,-95.65
10394.0,ATH,"Athens, Greece",Eleftherios Venizelos International,37.93666667,23.94444444
10395.0,ATI,"Artigas, Uruguay",Artigas International,-30.4,-56.50833333
10395.0,ATI,"Artigas, Uruguay",Artigas International,-30.40083333,-56.50777778
10396.0,ATK,"Atqasuk, AK",Atqasuk Edward Burnell Sr. Memorial,70.46722222,-157.43555556
10396.0,ATK,"Atqasuk, AK",Atqasuk Edward Burnell Sr. Memorial,70.46722222,-157.43583333
10396.0,ATK,"Atqasuk, AK",Atqasuk Edward Burnell Sr. Memorial,70.4675,-157.45194444
10397.0,ATL,"Atlanta, GA",Hartsfield-Jackson Atlanta International,33.64083333,-84.42722222
10397.0,ATL,"Atlanta, GA",Hartsfield-Jackson Atlanta International,33.63666667,-84.42777778
10397.0,ATL,"Atlanta, GA",Hartsfield-Jackson Atlanta International,33.63666667,-84.42805556
10398.0,ATM,"Altamira, Brazil",Altamira Airport,-3.25305556,-52.25388889
10398.0,ATM,"Altamira, Brazil",Altamira Airport,-3.25333333,-52.25305556
10398.0,ATM,"Altamira, Brazil",Altamira Airport,-3.25388889,-52.25388889
10399.0,ATN,"Namatanai, Papua New Guinea",Namatanai Airport,-3.66944444,152.43805556
10399.0,ATN,"Namatanai, Papua New Guinea",Namatanai Airport,-3.66972222,152.43805556
10399.0,ATN,"Namatanai, Papua New Guinea",Namatanai Airport,-3.67138889,152.43638889
10400.0,ATO,"Athens, OH",Ohio University,39.21194444,-82.22916667
10400.0,ATO,"Athens, OH",Ohio University,39.21083333,-82.23166667
10401.0,ATP,"Aitape, Papua New Guinea",Aitape Airport,-3.1425,142.34666667
10402.0,ATQ,"Amritsar, India",Amritsar International,31.70694444,74.79722222
10402.0,ATQ,"Amritsar, India",Amritsar International,31.71138889,74.79638889
10403.0,ATR,"Atar, Mauritania",Atar Airport,20.49944444,-13.04638889
10403.0,ATR,"Atar, Mauritania",Atar Airport,20.50666667,-13.04305556
10404.0,ATS,"Artesia, NM",Artesia Municipal,32.84833333,-104.46694444
10404.0,ATS,"Artesia, NM",Artesia Municipal,32.85166667,-104.46722222
10404.0,ATS,"Artesia, NM",Artesia Municipal,32.85194444,-104.4675
10404.0,ATS,"Artesia, NM",Artesia Municipal,32.8525,-104.46777778
10405.0,ATT,"Atmautluak, AK",Atmautluak Airport,60.86722222,-162.27333333
10405.0,ATT,"Atmautluak, AK",Atmautluak Airport,60.8675,-162.27083333
10405.0,ATT,"Atmautluak, AK",Atmautluak Airport,60.86777778,-162.27416667
10406.0,ATU,"Attu, AK",Casco Cove CGS,52.82583333,173.17277778
10406.0,ATU,"Attu, AK",Casco Cove CGS,52.8325,173.17555556
10407.0,ATV,"Ati, Chad",Ati Airport,13.23972222,18.31333333
10407.0,ATV,"Ati, Chad",Ati Airport,13.23972222,18.31555556
10407.0,ATV,"Ati, Chad",Ati Airport,13.24222222,18.3075
10408.0,ATW,"Appleton, WI",Appleton International,44.25805556,-88.51916667
10408.0,ATW,"Appleton, WI",Appleton International,44.25777778,-88.52
10409.0,ATY,"Watertown, SD",Watertown Regional,44.90888889,-97.15416667
10409.0,ATY,"Watertown, SD",Watertown Regional,44.91388889,-97.15472222
10410.0,ATZ,"Assiut, Egypt",Assiut Airport,27.04638889,31.07861111
16465.0,AU1,"Weipa, Australia",Scherger,-12.62277778,142.08805556
16465.0,AU1,"Weipa, Australia",Scherger,-12.62388889,142.08722222
10411.0,AUA,"Aruba, Aruba",Reina Beatrix International,12.50138889,-70.01555556
10411.0,AUA,"Aruba, Aruba",Reina Beatrix International,12.50222222,-70.01388889
10412.0,AUC,"Arauca, Colombia",Santiago Perez,7.06888889,-70.73694444
10412.0,AUC,"Arauca, Colombia",Santiago Perez,7.07027778,-70.74055556
10413.0,AUD,"Augustus Downs, Australia",Augustus Downs Airport,-18.50694444,139.88166667
10413.0,AUD,"Augustus Downs, Australia",Augustus Downs Airport,-18.51555556,139.87861111
10414.0,AUG,"Augusta/Waterville, ME",Augusta State,44.31805556,-69.79666667
10414.0,AUG,"Augusta/Waterville, ME",Augusta State,44.32055556,-69.79722222
10415.0,AUH,"Abu Dhabi, United Arab Emirates",Abu Dhabi International,24.43305556,54.64888889
10415.0,AUH,"Abu Dhabi, United Arab Emirates",Abu Dhabi International,24.44333333,54.65277778
16386.0,AUI,"Aua Island, Papua New Guinea",Aua Island Airport,-1.46166667,143.06472222
16386.0,AUI,"Aua Island, Papua New Guinea",Aua Island Airport,-1.46222222,143.06444444
10416.0,AUK,"Alakanuk, AK",Alakanuk Airport,62.68,-164.66
10416.0,AUK,"Alakanuk, AK",Alakanuk Airport,62.68305556,-164.72222222
10416.0,AUK,"Alakanuk, AK",Alakanuk Airport,62.68916667,-164.61083333
10417.0,AUM,"Austin/Albert Lea, MN",Austin Municipal,43.66277778,-92.93305556
10417.0,AUM,"Austin/Albert Lea, MN",Austin Municipal,43.66444444,-92.93388889
10418.0,AUN,"Auburn, CA",Auburn Municipal,38.95277778,-121.08194444
10418.0,AUN,"Auburn, CA",Auburn Municipal,38.95472222,-121.08166667
10419.0,AUO,"Auburn, AL",Auburn University Regional,32.615,-85.43388889
10419.0,AUO,"Auburn, AL",Auburn University Regional,32.61527778,-85.43194444
10420.0,AUP,"Aguan, Papua New Guinea",Aguan Papua N.G.,-9.91666667,149.33333333
10421.0,AUQ,"Atuona, French Polynesia",Hiva Oa/Atuona,-9.76583333,-139.00972222
10421.0,AUQ,"Atuona, French Polynesia",Hiva Oa/Atuona,-9.76611111,-139.01
10421.0,AUQ,"Atuona, French Polynesia",Hiva Oa/Atuona,-9.76666667,-139.01666667
10421.0,AUQ,"Atuona, French Polynesia",Hiva Oa/Atuona,-9.76888889,-139.01138889
10422.0,AUR,"Aurillac, France",Aurillac Airport,44.89111111,2.42194444
10422.0,AUR,"Aurillac, France",Aurillac Airport,44.8975,2.41805556
10423.0,AUS,"Austin, TX",Austin - Bergstrom International,30.19444444,-97.67
10423.0,BSM,"Austin, TX",Austin - Bergstrom International,30.19444444,-97.67
10424.0,AUW,"Wausau, WI",Wausau Downtown,44.92333333,-89.62305556
10424.0,AUW,"Wausau, WI",Wausau Downtown,44.92638889,-89.62666667
10424.0,AUW,"Wausau, WI",Wausau Downtown,44.92638889,-89.62694444
10425.0,AUX,"Araguaina, Brazil",Araguaina Airport,-7.2,-48.2
10425.0,AUX,"Araguaina, Brazil",Araguaina Airport,-7.22777778,-48.24055556
10426.0,AUY,"Aneityum, Vanuatu",Aneityum Airport,-20.25333333,169.76138889
10426.0,AUY,"Aneityum, Vanuatu",Aneityum Airport,-20.24916667,169.77083333
10426.0,AUY,"Aneityum, Vanuatu",Aneityum Airport,-20.24944444,169.77083333
10427.0,AUZ,"Aurora, IL",Aurora Municipal,41.77083333,-88.47277778
10427.0,AUZ,"Aurora, IL",Aurora Municipal,41.77194444,-88.47555556
10428.0,AVB,"Aviano, Italy",Aviano AB,46.03,12.59888889
10428.0,AVB,"Aviano, Italy",Aviano AB,46.03055556,12.59638889
10428.0,AVB,"Aviano, Italy",Aviano AB,46.03111111,12.59638889
10428.0,AVB,"Aviano, Italy",Aviano AB,46.03194444,12.59722222
10430.0,AVI,"Ciego de Avila, Cuba",Maximo Gomez,22.02638889,-78.79055556
10430.0,AVI,"Ciego de Avila, Cuba",Maximo Gomez,22.02694444,-78.78972222
10431.0,AVL,"Asheville, NC",Asheville Regional,35.43444444,-82.54277778
10431.0,AVL,"Asheville, NC",Asheville Regional,35.435,-82.54111111
10431.0,AVL,"Asheville, NC",Asheville Regional,35.43611111,-82.54194444
10432.0,AVN,"Avignon, France",Avignon Caumont,43.90666667,4.90194444
10432.0,AVN,"Avignon, France",Avignon Caumont,43.90722222,4.90194444
10433.0,AVO,"Avon Park, FL",Avon Park Executive,27.59138889,-81.52888889
10433.0,AVO,"Avon Park, FL",Avon Park Executive,27.5925,-81.52694444
10434.0,AVP,"Scranton/Wilkes-Barre, PA",Wilkes Barre Scranton International,41.33833333,-75.72333333
10434.0,AVP,"Scranton/Wilkes-Barre, PA",Wilkes Barre Scranton International,41.33861111,-75.72333333
10434.0,AVP,"Scranton/Wilkes-Barre, PA",Wilkes Barre Scranton International,41.33916667,-75.72583333
10435.0,AVV,"Avalon, Australia",Avalon Airport,-38.03944444,144.46944444
10435.0,AVV,"Avalon, Australia",Avalon Airport,-38.04083333,144.46722222
10435.0,AVV,"Avalon, Australia",Avalon Airport,-38.04083333,144.46805556
10436.0,AVW,"Tucson, AZ",Marana Regional,32.40916667,-111.21805556
10436.0,AVW,"Tucson, AZ",Marana Regional,32.40944444,-111.21833333
10437.0,AVX,"Avalon, CA",Catalina,33.405,-118.41583333
10437.0,CIB,"Avalon, CA",Catalina,33.405,-118.41583333
11001.0,AVX,"Avalon, CA",Catalina,33.405,-118.41583333
11001.0,CIB,"Avalon, CA",Catalina,33.405,-118.41583333
10438.0,AWA,"Awasa, Ethiopia",Lake Awasa,7.06111111,38.4875
10438.0,AWA,"Awasa, Ethiopia",Lake Awasa,7.06666667,38.49055556
10439.0,AWK,"Wake Island, TT",Wake Island Airfield,19.28,166.64027778
10439.0,AWK,"Wake Island, TT",Wake Island Airfield,19.2825,166.63666667
10440.0,AWM,"West Memphis, AR",West Memphis Municipal,35.135,-90.23444444
10441.0,AWR,"Awar, Papua New Guinea",Awar Airport,-4.12416667,144.87027778
10442.0,AWX,"Andrews, TX",Andrews County,32.32944444,-102.53027778
10442.0,AWX,"Andrews, TX",Andrews County,32.33083333,-102.52972222
10442.0,AWX,"Andrews, TX",Andrews County,32.33111111,-102.52944444
10443.0,AWZ,"Ahwaz, Iran",Ahwaz Airport,31.3375,48.76194444
10443.0,AWZ,"Ahwaz, Iran",Ahwaz Airport,31.33777778,48.75972222
10444.0,AXA,"The Valley, Anguilla",Clayton J Lloyd,18.20472222,-63.05388889
10444.0,AXA,"The Valley, Anguilla",Clayton J Lloyd,18.21027778,-63.0575
10445.0,AXB,"Alexandria Bay, NY",Maxson Airfield,44.31666667,-75.89972222
10446.0,AXC,"Aramac, Australia",Aramac Airport,-22.95805556,145.2425
10446.0,AXC,"Aramac, Australia",Aramac Airport,-22.96333333,145.25166667
10446.0,AXC,"Aramac, Australia",Aramac Airport,-22.96333333,145.25333333
10446.0,AXC,"Aramac, Australia",Aramac Airport,-22.96666667,145.24166667
10447.0,AXD,"Alexandroupolis, Greece",Dimokritos,40.85555556,25.95
10447.0,AXD,"Alexandroupolis, Greece",Dimokritos,40.85583333,25.95611111
10447.0,AXD,"Alexandroupolis, Greece",Dimokritos,40.85583333,25.95638889
10448.0,AXM,"Armenia, Colombia",El Eden,4.45083333,-75.76666667
10448.0,AXM,"Armenia, Colombia",El Eden,4.45166667,-75.76611111
10448.0,AXM,"Armenia, Colombia",El Eden,4.45638889,-75.76805556
10449.0,AXN,"Alexandria, MN",Chandler Field,45.86638889,-95.39472222
10449.0,AXN,"Alexandria, MN",Chandler Field,45.86722222,-95.39416667
10450.0,AXP,"Spring Point, The Bahamas",Spring Point Airport,22.44194444,-73.97055556
10450.0,AXP,"Spring Point, The Bahamas",Spring Point Airport,22.44194444,-73.97083333
10451.0,AXS,"Altus, OK",Altus/Quartz Mountain Regional,34.69805556,-99.33805556
10451.0,AXS,"Altus, OK",Altus/Quartz Mountain Regional,34.69888889,-99.33833333
10452.0,AXT,"Akita, Japan",Akita Airport,39.61555556,140.21861111
10453.0,AXU,"Axum, Ethiopia",Axum Atse Yohannes IV,14.12083333,38.71666667
10453.0,AXU,"Axum, Ethiopia",Axum Atse Yohannes IV,14.14694444,38.77138889
10453.0,AXU,"Axum, Ethiopia",Axum Atse Yohannes IV,14.14694444,38.7725
10454.0,AXV,"Wapakoneta, OH",Neil Armstrong,40.49333333,-84.29888889
10454.0,AXV,"Wapakoneta, OH",Neil Armstrong,40.49361111,-84.29805556
10455.0,AXX,"Eagle Nest, NM",Angel Fire,36.42055556,-105.28944444
10455.0,AXX,"Eagle Nest, NM",Angel Fire,36.42194444,-105.29
10456.0,AYL,"Anthony Lagoon, Australia",Anthony Lagoon Airport,-18.01666667,135.55
10457.0,AYP,"Ayacucho, Peru",Coronel FAP Alfredo Mendivil Duarte,-13.13333333,-74.2
10457.0,AYP,"Ayacucho, Peru",Coronel FAP Alfredo Mendivil Duarte,-13.15472222,-74.20444444
10458.0,AYQ,"Ayers Rock, Australia",Ayers Rock Connellan,-25.18555556,130.97666667
10458.0,AYQ,"Ayers Rock, Australia",Ayers Rock Connellan,-25.18611111,130.97555556
10459.0,AYR,"Ayr, Australia",Ayr Airport,-19.58444444,147.32916667
10459.0,AYR,"Ayr, Australia",Ayr Airport,-19.59305556,147.32416667
10459.0,AYR,"Ayr, Australia",Ayr Airport,-19.59666667,147.32444444
10459.0,AYR,"Ayr, Australia",Ayr Airport,-19.59666667,147.325
10460.0,AYS,"Waycross, GA",Waycross-Ware County,31.24916667,-82.39555556
10460.0,AYS,"Waycross, GA",Waycross-Ware County,31.24833333,-82.39527778
10460.0,AYS,"Waycross, GA",Waycross-Ware County,31.24861111,-82.39666667
10461.0,AYT,"Antalya, Turkey",Antalya Airport,36.89861111,30.80055556
10461.0,AYT,"Antalya, Turkey",Antalya Airport,36.89972222,30.7975
10461.0,AYT,"Antalya, Turkey",Antalya Airport,36.90555556,30.79055556
10462.0,AYW,"Ayawasi, Indonesia",Ayawasi Airport,-1.14166667,132.47833333
10462.0,AYW,"Ayawasi, Indonesia",Ayawasi Airport,-1.15972222,132.46333333
10462.0,AYW,"Ayawasi, Indonesia",Ayawasi Airport,-1.15972222,132.46416667
10463.0,AZ1,"Grand Canyon, AZ",Valle,35.65055556,-112.14805556
10463.0,AZ1,"Grand Canyon, AZ",Valle,35.65083333,-112.14805556
10464.0,AZ2,"Williams, AZ",H. A. Clark Memorial Field,35.30222222,-112.19416667
10464.0,AZ2,"Williams, AZ",H. A. Clark Memorial Field,35.30555556,-112.19444444
10465.0,AZ3,"Glendale, AZ",Glendale Municipal,33.52694444,-112.29527778
10465.0,AZ3,"Glendale, AZ",Glendale Municipal,33.52722222,-112.29527778
16451.0,AZ4,"Salome, AZ",Sheepy Hollow Ranch,33.7875,-113.6425
16561.0,AZ5,"Springerville, AZ",Springerville Municipal,34.11805556,-109.31083333
16561.0,AZ5,"Springerville, AZ",Springerville Municipal,34.12944444,-109.31083333
16639.0,AZ6,"Gila Bend, AZ",Gila Bend Municipal,32.96027778,-112.67361111
16837.0,AZ7,"Colorado City, AZ",Colorado City Municipal,36.96,-113.01388889
16973.0,AZ8,"Green Valley, AZ",Ruby Star Airpark,31.90916667,-111.12083333
16975.0,AZ9,"Coolidge, AZ",Coolidge Municipal,32.93611111,-111.42638889
10466.0,AZA,"Phoenix, AZ",Phoenix - Mesa Gateway,33.30777778,-111.65555556
10467.0,AZD,"Yazd, Iran",Shahid Sadooghi International,31.905,54.27638889
10467.0,AZD,"Yazd, Iran",Shahid Sadooghi International,31.89777778,54.28166667
10468.0,AZG,"Apatzingan, Mexico",Pablo L. Sidar,19.09361111,-102.39361111
16531.0,AZI,"Abu Dhabi, United Arab Emirates",Al Bateen Executive,24.42833333,54.45805556
10469.0,AZO,"Kalamazoo, MI",Kalamazoo/Battle Creek International,42.23444444,-85.55166667
10469.0,AZO,"Kalamazoo, MI",Kalamazoo/Battle Creek International,42.23638889,-85.55361111
16888.0,AZR,"Adrar, Nigeria",Touat Cheikh Sidi Mohamed Belkebir,27.83777778,-0.18638889
10470.0,AZS,"Samana, Dominican Republic",El Catey International,19.26944444,-69.73694444
10470.0,AZS,"Samana, Dominican Republic",El Catey International,19.26666667,-69.75
10471.0,B19,"Biddeford, ME",Biddeford Municipal,43.46416667,-70.4725
16649.0,B1C,"Baker Island, Canada",Blackfish Lodge,50.75194444,-126.58722222
10472.0,B21,"Carrabassett, ME",Sugarloaf Regional,45.08527778,-70.21638889
10472.0,B21,"Carrabassett, ME",Sugarloaf Regional,45.08555556,-70.21638889
10472.0,B21,"Carrabassett, ME",Sugarloaf Regional,45.08611111,-70.21611111
16650.0,B2C,"Blind Channel, Canada",Blind Channel Water Aerodrome,50.40194444,-125.41916667
16652.0,B3C,"Minstrel Island, Canada",Minstrel Island Water Aerodrome,50.61888889,-126.31777778
16655.0,B4C,"Simoom Sound, Canada",Simoom Sound Water Aerodrome,50.75194444,-126.50111111
10473.0,BAA,"Bialla, Papua New Guinea",Bialla Airport,-5.31666667,151.03333333
10473.0,BAA,"Bialla, Papua New Guinea",Bialla Airport,-5.33055556,151.00805556
10474.0,BAB,"Marysville, CA",Beale AFB,39.13611111,-121.43555556
10474.0,BAB,"Marysville, CA",Beale AFB,39.13611111,-121.43666667
10475.0,BAC,"Barranca de Upia, Colombia",Barranca de Upia Airport,4.56916667,-72.96722222
10476.0,BAD,"Shreveport, LA",Barksdale AFB,32.50166667,-93.6625
10476.0,BAD,"Shreveport, LA",Barksdale AFB,32.50194444,-93.6625
10476.0,BAD,"Shreveport, LA",Barksdale AFB,32.50194444,-93.66277778
10477.0,BAE,"Barcelonnette, France",Barcelonnette Airport,44.38333333,6.63333333
10478.0,BAF,"Westfield, MA",Westfield Barnes Regional,42.15805556,-72.71583333
10478.0,BAF,"Westfield, MA",Westfield Barnes Regional,42.16,-72.71638889
10479.0,BAG,"Baguio, Philippines",Baguio Airport,16.375,120.61888889
10479.0,BAG,"Baguio, Philippines",Baguio Airport,16.375,120.61972222
10479.0,BAG,"Baguio, Philippines",Baguio Airport,16.37666667,120.61777778
10480.0,BAH,"Manama, Bahrain",Bahrain International,26.26777778,50.63694444
10480.0,BAH,"Manama, Bahrain",Bahrain International,26.26805556,50.63694444
10480.0,BAH,"Manama, Bahrain",Bahrain International,26.27083333,50.63361111
10480.0,BAH,"Manama, Bahrain",Bahrain International,26.27083333,50.6375
10481.0,BAI,"Buenos Aires, Costa Rica",Buenos Aires Airport,9.16333333,-83.33027778
10481.0,BAI,"Buenos Aires, Costa Rica",Buenos Aires Airport,9.16361111,-83.33
10481.0,BAI,"Buenos Aires, Costa Rica",Buenos Aires Airport,9.16583333,-83.3325
12050.0,BAK,"Baku, Azerbaijan",Baku Metropolitan Area,40.4675,50.04666667
10483.0,BAL,"Batman, Turkey",Batman Airport,37.92888889,41.11666667
10483.0,BAL,"Batman, Turkey",Batman Airport,37.93166667,41.11888889
10484.0,BAM,"Battle Mountain, NV",Battle Mountain Airport,40.59916667,-116.87444444
10484.0,BAM,"Battle Mountain, NV",Battle Mountain Airport,40.5975,-116.87222222
10485.0,BAO,"Ban Mak Khaeng, Thailand",Udorn AB,17.38305556,102.8
10486.0,BAQ,"Barranquilla, Colombia",Ernesto Cortissoz,10.88944444,-74.78055556
10486.0,BAQ,"Barranquilla, Colombia",Ernesto Cortissoz,10.88972222,-74.78083333
10486.0,BAQ,"Barranquilla, Colombia",Ernesto Cortissoz,10.89611111,-74.77888889
10487.0,BAR,"Baker Island, AK",Baker AAF,55.36666667,-133.6
16388.0,BAT,"Barretos, Brazil",Chafei Amsei,-20.58444444,-48.59416667
16388.0,BAT,"Barretos, Brazil",Chafei Amsei,-20.58472222,-48.59416667
16388.0,BAT,"Barretos, Brazil",Chafei Amsei,-20.58472222,-48.59444444
16388.0,BAT,"Barretos, Brazil",Chafei Amsei,-20.585,-48.59527778
10489.0,BAU,"Bauru, Brazil",Bauru-Arealva,-22.345,-49.05388889
10489.0,BAU,"Bauru, Brazil",Bauru-Arealva,-22.15777778,-49.06833333
10489.0,BAU,"Bauru, Brazil",Bauru-Arealva,-22.16111111,-49.07
10490.0,BAV,"Baotou, China",Baotou Airport,40.55944444,109.99833333
10490.0,BAV,"Baotou, China",Baotou Airport,40.66666667,109.98333333
10491.0,BAX,"Barnaul, Russia",Mikhaylovka,53.36333333,83.53944444
10491.0,BAX,"Barnaul, Russia",Mikhaylovka,53.36333333,83.53972222
10491.0,BAX,"Barnaul, Russia",Mikhaylovka,53.36388889,83.54194444
10492.0,BAY,"Baia Mare, Romania",Maramures,47.65,23.46666667
10492.0,BAY,"Baia Mare, Romania",Maramures,47.65833333,23.46611111
10492.0,BAY,"Baia Mare, Romania",Maramures,47.65861111,23.46388889
16460.0,BAZ,"Barcelos, Brazil",Barcelos Airport,-0.98111111,-62.91833333
16460.0,BAZ,"Barcelos, Brazil",Barcelos Airport,-0.98138889,-62.91972222
10493.0,BBA,"Balmaceda, Chile",Balmaceda Airport,-45.91611111,-71.68944444
10493.0,BBA,"Balmaceda, Chile",Balmaceda Airport,-45.91666667,-71.695
10494.0,BBC,"Bay City, TX",Bay City Regional,28.97305556,-95.86333333
10494.0,BBC,"Bay City, TX",Bay City Regional,28.97333333,-95.86333333
16665.0,BBD,"Brady, TX",Curtis Field,31.17916667,-99.32388889
10495.0,BBF,"Burlington, MA",N Eng Heliport,42.50833333,-71.18333333
10497.0,BBI,"Bhubaneswar, India",Biju Patnaik International,20.24361111,85.82
10497.0,BBI,"Bhubaneswar, India",Biju Patnaik International,20.24444444,85.81777778
10497.0,BBI,"Bhubaneswar, India",Biju Patnaik International,20.25083333,85.81277778
16713.0,BBK,"Kasane North West, Botswana",Kasane,-17.83083333,25.16277778
16713.0,BBK,"Kasane North West, Botswana",Kasane,-17.83138889,25.16666667
10498.0,BBO,"Berbera, Somalia",Berbera International,10.38444444,44.93611111
10498.0,BBO,"Berbera, Somalia",Berbera International,10.38916667,44.94111111
10498.0,BBO,"Berbera, Somalia",Berbera International,10.38916667,44.94138889
10498.0,BBO,"Berbera, Somalia",Berbera International,10.39166667,44.95
10499.0,BBQ,"Barbuda, Antigua and Barbuda",Cocoa Point,17.55555556,-61.765
10500.0,BBR,"Basse Terre, Guadeloupe",Baillif,16.01333333,-61.74222222
10500.0,BBR,"Basse Terre, Guadeloupe",Baillif,16.01361111,-61.74305556
10500.0,BBR,"Basse Terre, Guadeloupe",Baillif,16.01611111,-61.73888889
10501.0,BBS,"Blackbushe, United Kingdom",Blackbushe Airport,51.32388889,-0.8475
10501.0,BBS,"Blackbushe, United Kingdom",Blackbushe Airport,51.32388889,-0.84777778
10501.0,BBS,"Blackbushe, United Kingdom",Blackbushe Airport,51.32444444,-0.84055556
10502.0,BBT,"Berberati, Central African Republic",Berberati Airport,4.21916667,15.78805556
10502.0,BBT,"Berberati, Central African Republic",Berberati Airport,4.22138889,15.78638889
10502.0,BBT,"Berberati, Central African Republic",Berberati Airport,4.22166667,15.78638889
10503.0,BBU,"Bucharest, Romania",Baneasa Aurel Vlaicu,44.50333333,26.10277778
10503.0,BBU,"Bucharest, Romania",Baneasa Aurel Vlaicu,44.5,26.1
16573.0,BBW,"Broken Bow, NE",Broken Bow Municipal Keith Glaze Field,41.43638889,-99.64222222
10504.0,BBX,"Blue Bell, PA",Wings Field,40.13666667,-75.2675
10504.0,BBX,"Blue Bell, PA",Wings Field,40.1375,-75.26527778
10505.0,BBY,"Bambari, Central African Republic",Bambari Airport,5.84583333,20.64972222
10505.0,BBY,"Bambari, Central African Republic",Bambari Airport,5.84694444,20.64972222
10506.0,BBZ,"Zambezi, Zambia",Zambezi Airport,-13.53722222,23.11
10506.0,BBZ,"Zambezi, Zambia",Zambezi Airport,-13.5375,23.10777778
16653.0,BC1,"Port Harvey, Canada",Port Harvey Water Aerodrome,50.56888889,-126.27472222
16600.0,BC2,"Berry Island, Canada",Farewell Harbour,50.60833333,-126.84444444
16601.0,BC3,"Bliss Landing, Canada",Bliss Landing Water Aerodrome,50.03333333,-124.82222222
16602.0,BC4,"Cordero Lodge, Canada",Cordero Lodge Airport,50.44666667,-125.45277778
16604.0,BC5,"Dent Island, Canada",Dent Island Lodge,50.41111111,-125.18333333
16605.0,BC6,"Egmont, Canada",Egmont Water Aerodrome,49.75277778,-123.93027778
16619.0,BC7,"Sonora Island, Canada",Sonora Resort,50.38305556,-125.15527778
16607.0,BC8,"Hanson Island, Canada",Pacific Outback Resort,50.58416667,-126.75166667
16607.0,BC8,"Hanson Island, Canada",Pacific Outback Resort,50.59166667,-126.76666667
16609.0,BC9,"Mink Island, Canada",Mink Island Water Aerodrome,50.11666667,-124.75
10507.0,BCA,"Baracoa, Cuba",Gustavo Rizo,20.36444444,-74.50638889
10507.0,BCA,"Baracoa, Cuba",Gustavo Rizo,20.36527778,-74.50611111
10508.0,BCB,"Blacksburg, VA",Virginia Tech Montgomery Exec,37.20944444,-80.41222222
10508.0,BCB,"Blacksburg, VA",Virginia Tech Montgomery Exec,37.20722222,-80.40694444
10508.0,BCB,"Blacksburg, VA",Virginia Tech Montgomery Exec,37.20777778,-80.40777778
10509.0,BCC,"Bear Creek, AK",Bear Creek Airport,57.6175,-155.86722222
10510.0,BCD,"Bacolod, Philippines",Bacolod Airport,10.6425,122.92972222
16398.0,BCD,"Bacolod, Philippines",Bacolod Airport,10.77666667,123.01916667
10511.0,BCE,"Bryce Canyon, UT",Bryce Canyon Airport,37.70638889,-112.14472222
10511.0,BCE,"Bryce Canyon, UT",Bryce Canyon Airport,37.70638889,-112.14583333
10512.0,BCH,"Baucau, Timor-Leste",Baucau Airport,-8.49305556,126.40055556
10512.0,BCH,"Baucau, Timor-Leste",Baucau Airport,-8.48555556,126.39944444
10513.0,BCI,"Barcaldine, Australia",Barcaldine Airport,-23.55916667,145.30194444
10513.0,BCI,"Barcaldine, Australia",Barcaldine Airport,-23.56527778,145.30666667
10514.0,BCJ,"Crestone, CO",Baca Grande,37.96666667,-105.76666667
10515.0,BCL,"Barra del Colorado, Costa Rica",Barra del Colorado Airport,10.76777778,-83.58583333
10515.0,BCL,"Barra del Colorado, Costa Rica",Barra del Colorado Airport,10.76861111,-83.58555556
10516.0,BCM,"Bacau, Romania",George Enescu Bacau International,46.52194444,26.91027778
10516.0,BCM,"Bacau, Romania",George Enescu Bacau International,46.59861111,26.88194444
10517.0,BCN,"Barcelona, Spain",Barcelona Airport,41.295,2.08777778
10517.0,BCN,"Barcelona, Spain",Barcelona Airport,41.29694444,2.07833333
10517.0,BCN,"Barcelona, Spain",Barcelona Airport,41.30277778,2.09444444
10518.0,BCS,"Belle Chasse, LA",Southern Seaplane,29.86611111,-90.02222222
10519.0,BCT,"Boca Raton, FL",Boca Raton Public,26.37083333,-80.10833333
10520.0,BCY,"Bulchi, Ethiopia",Bulchi Airport,6.29222222,36.88722222
10521.0,BDA,"Hamilton, Bermuda",L. F. Wade International,32.36416667,-64.67861111
10521.0,BDA,"Hamilton, Bermuda",L. F. Wade International,32.36333333,-64.67805556
10521.0,BDA,"Hamilton, Bermuda",L. F. Wade International,32.36388889,-64.67777778
10522.0,BDB,"Bundaberg, Australia",Bundaberg Airport,-24.90361111,152.32166667
10522.0,BDB,"Bundaberg, Australia",Bundaberg Airport,-24.90388889,152.31861111
10522.0,BDB,"Bundaberg, Australia",Bundaberg Airport,-24.90583333,152.32083333
10523.0,BDE,"Baudette, MN",Baudette International,48.72083333,-94.6
10523.0,BDE,"Baudette, MN",Baudette International,48.72833333,-94.61222222
10523.0,BDE,"Baudette, MN",Baudette International,48.73027778,-94.61111111
10524.0,BDG,"Blanding, UT",Blanding Municipal,37.58277778,-109.4825
10524.0,BDG,"Blanding, UT",Blanding Municipal,37.58333333,-109.48333333
10525.0,BDH,"Bandar Lengeh, Iran",Bandar Lengeh Airport,26.53138889,54.82361111
10525.0,BDH,"Bandar Lengeh, Iran",Bandar Lengeh Airport,26.53222222,54.82472222
10526.0,BDI,"Bird Island, Seychelles",Bird Island Airport,-3.72416667,55.20527778
10526.0,BDI,"Bird Island, Seychelles",Bird Island Airport,-3.72416667,55.20555556
10527.0,BDJ,"Bandjarmasin, Indonesia",Syamsudin Noor,-3.44222222,114.76277778
10528.0,BDK,"Bondoukou, Cote d'Ivoire",Bondoukou/Soko,8.0175,-2.76222222
10528.0,BDK,"Bondoukou, Cote d'Ivoire",Bondoukou/Soko,8.01777778,-2.76222222
10528.0,BDK,"Bondoukou, Cote d'Ivoire",Bondoukou/Soko,8.01833333,-2.75833333
10529.0,BDL,"Hartford, CT",Bradley International,41.9375,-72.68305556
10529.0,BDL,"Hartford, CT",Bradley International,41.93861111,-72.68333333
10529.0,BDL,"Hartford, CT",Bradley International,41.93888889,-72.68333333
10529.0,BDL,"Hartford, CT",Bradley International,41.93916667,-72.68333333
10529.0,BDL,"Hartford, CT",Bradley International,41.93916667,-72.68444444
10530.0,BDM,"Bandirma, Turkey",Bandirma Airport,40.31805556,27.9775
10530.0,BDM,"Bandirma, Turkey",Bandirma Airport,40.31805556,27.97777778
10530.0,BDM,"Bandirma, Turkey",Bandirma Airport,40.31833333,27.97722222
10531.0,BDN,"Badin, Pakistan",Talhar,24.84166667,68.83888889
10531.0,BDN,"Badin, Pakistan",Talhar,24.84194444,68.83833333
10532.0,BDO,"Bandung, Indonesia",Husein Sastranegara,-6.90055556,107.57333333
10532.0,BDO,"Bandung, Indonesia",Husein Sastranegara,-6.90055556,107.57611111
10532.0,BDO,"Bandung, Indonesia",Husein Sastranegara,-6.90055556,107.57638889
10532.0,BDO,"Bandung, Indonesia",Husein Sastranegara,-6.90166667,107.57583333
10532.0,BDO,"Bandung, Indonesia",Husein Sastranegara,-6.90194444,107.575
10533.0,BDP,"Bhadrapur/Chandragadhi, Nepal",Chandragadhi,26.57083333,88.07888889
10533.0,BDP,"Bhadrapur/Chandragadhi, Nepal",Chandragadhi,26.57166667,88.08
10534.0,BDQ,"Vadodara, India",Vadodara Airport,22.32916667,73.22083333
10534.0,BDQ,"Vadodara, India",Vadodara Airport,22.33611111,73.22638889
10535.0,BDR,"Bridgeport, CT",Bridgeport Sikorsky,41.16361111,-73.12611111
10535.0,BDR,"Bridgeport, CT",Bridgeport Sikorsky,41.16333333,-73.12611111
10535.0,BDR,"Bridgeport, CT",Bridgeport Sikorsky,41.16416667,-73.12444444
10536.0,BDS,"Brindisi, Italy",Brindisi Airport,40.65833333,17.94694444
10536.0,BDS,"Brindisi, Italy",Brindisi Airport,40.65805556,17.94666667
16752.0,BDT,"Bgadolite, Congo (Kinshasa)",Gbadolite,4.25277778,20.97555556
16752.0,BDT,"Bgadolite, Congo (Kinshasa)",Gbadolite,4.25305556,20.97555556
16752.0,BDT,"Bgadolite, Congo (Kinshasa)",Gbadolite,4.25333333,20.97527778
10537.0,BDU,"Bardufoss, Norway",Bardufoss Airport,69.05583333,18.53888889
10537.0,BDU,"Bardufoss, Norway",Bardufoss Airport,69.05583333,18.54027778
10537.0,BDU,"Bardufoss, Norway",Bardufoss Airport,69.05611111,18.54
10538.0,BDY,"Bandon, OR",Bandon State,43.08638889,-124.40777778
10538.0,BDY,"Bandon, OR",Bandon State,43.0875,-124.40833333
16814.0,BE1,"Steenokkerzeel, Belgium",Steenokkerzeel Airport,50.91666667,4.51666667
17001.0,BE2,"Brussels, Belgium",Melsbroek AB,50.90138889,4.48444444
10539.0,BEB,"Benbecula, United Kingdom",Benbecula Airport,57.48055556,-7.36388889
10539.0,BEB,"Benbecula, United Kingdom",Benbecula Airport,57.48111111,-7.36277778
10539.0,BEB,"Benbecula, United Kingdom",Benbecula Airport,57.48111111,-7.36305556
10539.0,BEB,"Benbecula, United Kingdom",Benbecula Airport,57.48222222,-7.36472222
16473.0,BEC,"Wichita, KS",Beech Factory,37.69388889,-97.215
16473.0,BEC,"Wichita, KS",Beech Factory,37.69444444,-97.215
10540.0,BED,"Bedford, MA",Laurence G Hanscom Field,42.47,-71.28888889
10540.0,BED,"Bedford, MA",Laurence G Hanscom Field,42.47,-71.28916667
10540.0,BED,"Bedford, MA",Laurence G Hanscom Field,42.47083333,-71.29
10541.0,BEF,"Bluefields, Nicaragua",Bluefields Airport,11.99083333,-83.77416667
10541.0,BEF,"Bluefields, Nicaragua",Bluefields Airport,11.99694444,-83.76861111
10542.0,BEG,"Belgrade, Serbia",Beograd,44.81916667,20.31222222
10542.0,BEG,"Belgrade, Serbia",Beograd,44.81833333,20.31305556
10542.0,BEG,"Belgrade, Serbia",Beograd,44.8175,20.30888889
10542.0,BEG,"Belgrade, Serbia",Beograd,44.81833333,20.30916667
10543.0,BEH,"Benton Harbor/St. Joseph, MI",Southwest Michigan Regional,42.12777778,-86.42833333
10543.0,BEH,"Benton Harbor/St. Joseph, MI",Southwest Michigan Regional,42.12833333,-86.425
10543.0,BEH,"Benton Harbor/St. Joseph, MI",Southwest Michigan Regional,42.12861111,-86.42611111
10543.0,BEH,"Benton Harbor/St. Joseph, MI",Southwest Michigan Regional,42.12861111,-86.42861111
10544.0,BEI,"Beica, Ethiopia",Beica Airport,9.39138889,34.51944444
10544.0,BEI,"Beica, Ethiopia",Beica Airport,9.39166667,34.53333333
10545.0,BEL,"Belem, Brazil",Val de Cans Julio Cezar Ribeiro International,-1.37888889,-48.47555556
10545.0,BEL,"Belem, Brazil",Val de Cans Julio Cezar Ribeiro International,-1.37916667,-48.47611111
10545.0,BEL,"Belem, Brazil",Val de Cans Julio Cezar Ribeiro International,-1.37916667,-48.47638889
10547.0,BEN,"Benghazi, Libya",Benina International,32.09583333,20.275
10547.0,BEN,"Benghazi, Libya",Benina International,32.09694444,20.26944444
10548.0,BEO,"Newcastle, Australia",Lake Macquarie,-33.06611111,151.64638889
10548.0,BEO,"Newcastle, Australia",Lake Macquarie,-33.06611111,151.64805556
10548.0,BEO,"Newcastle, Australia",Lake Macquarie,-33.06583333,151.64638889
10549.0,BER,"Berlin, Germany",Berlin Metropolitan Area,52.51166667,13.4025
10549.0,BER,"Berlin, Germany",Berlin Metropolitan Area,52.51166667,13.40138889
10550.0,BES,"Brest, France",Brest Bretagne,48.44777778,-4.41861111
10550.0,BES,"Brest, France",Brest Bretagne,48.44944444,-4.41694444
10550.0,BES,"Brest, France",Brest Bretagne,48.44944444,-4.41833333
10550.0,BES,"Brest, France",Brest Bretagne,48.44722222,-4.42055556
10551.0,BET,"Bethel, AK",Bethel Airport,60.77861111,-161.83722222
10551.0,BET,"Bethel, AK",Bethel Airport,60.78444444,-161.83138889
10552.0,BEU,"Bedourie, Australia",Bedourie North,-24.23,139.445
10553.0,BEV,"Beersheba, Israel",Teyman,31.28333333,34.71666667
10553.0,BEV,"Beersheba, Israel",Teyman,31.28638889,34.7225
10553.0,BEV,"Beersheba, Israel",Teyman,31.28666667,34.72305556
10554.0,BEW,"Beira, Mozambique",Beira Airport,-19.79444444,34.91194444
10554.0,BEW,"Beira, Mozambique",Beira Airport,-19.79638889,34.90777778
10555.0,BEY,"Beirut, Lebanon",Rafic Hariri International,33.81277778,35.49027778
10555.0,BEY,"Beirut, Lebanon",Rafic Hariri International,33.81805556,35.48388889
10555.0,BEY,"Beirut, Lebanon",Rafic Hariri International,33.81916667,35.49
10555.0,BEY,"Beirut, Lebanon",Rafic Hariri International,33.82055556,35.48777778
10556.0,BFB,"Blue Fox Bay, AK",Blue Fox Bay Airport,58.18333333,-152.13333333
10557.0,BFD,"Bradford, PA",Bradford Regional,41.80222222,-78.63944444
10557.0,BFD,"Bradford, PA",Bradford Regional,41.80305556,-78.64
10558.0,BFF,"Scottsbluff, NE",Western Neb. Regional/William B. Heilig Field,41.87416667,-103.59555556
10558.0,BFF,"Scottsbluff, NE",Western Neb. Regional/William B. Heilig Field,41.87527778,-103.60111111
16760.0,BFG,"Glen Canyon, UT",Bullfrog Basin,37.54583333,-110.71333333
10559.0,BFI,"Seattle, WA",Boeing Field/King County International,47.53,-122.30194444
10559.0,BFI,"Seattle, WA",Boeing Field/King County International,47.52888889,-122.29944444
10560.0,BFK,"Aurora, CO",Buckley Sfb,39.70166667,-104.75166667
10561.0,BFL,"Bakersfield, CA",Meadows Field,35.43,-119.05222222
10561.0,BFL,"Bakersfield, CA",Meadows Field,35.43361111,-119.05666667
10561.0,BFL,"Bakersfield, CA",Meadows Field,35.43388889,-119.05777778
10562.0,BFM,"Mobile, AL",Mobile International,30.62638889,-88.06805556
10562.0,BFM,"Mobile, AL",Mobile International,30.62666667,-88.06805556
10563.0,BFN,"Bloemfontein, South Africa",Bram Fischer International,-29.09222222,26.30277778
10563.0,BFN,"Bloemfontein, South Africa",Bram Fischer International,-29.09277778,26.3025
10564.0,BFO,"Buffalo Range, Zimbabwe",Buffalo Range Airport,-21.00916667,31.57916667
10564.0,BFO,"Buffalo Range, Zimbabwe",Buffalo Range Airport,-21.00805556,31.57861111
10565.0,BFP,"Beaver Falls, PA",Beaver County,40.77222222,-80.39111111
10565.0,BFP,"Beaver Falls, PA",Beaver County,40.7725,-80.39138889
10566.0,BFQ,"Bahia de Pinas, Panama",Bahia de Pinas Airport,7.58333333,-78.2
10567.0,BFR,"Bedford, IN",Virgil I Grissom Municipal,38.84,-86.44527778
10568.0,BFS,"Belfast, United Kingdom",Belfast Aldergrove,54.6575,-6.21583333
10568.0,BFS,"Belfast, United Kingdom",Belfast Aldergrove,54.65416667,-6.225
10569.0,BFT,"Beaufort, SC",Beaufort Executive,32.41194444,-80.63472222
10569.0,BFT,"Beaufort, SC",Beaufort Executive,32.41222222,-80.63444444
16708.0,BG1,"Graf Ingratievo, Bulgaria",Graf Ingratievo Airport,42.29055556,24.71388889
10570.0,BGA,"Bucaramanga, Colombia",Palonegro,7.12611111,-73.18472222
10570.0,BGA,"Bucaramanga, Colombia",Palonegro,7.12638889,-73.18472222
10570.0,BGA,"Bucaramanga, Colombia",Palonegro,7.12666667,-73.18472222
